,City,Country,Date,Lat,Lng,Max Temp,Humidity,Cloudiness,Wind Speed,Current Description,Rain inches (last 3 hrs),Snow inches (last 3 hrs)
0,Phan Thiet,VN,2020-04-02 20:50:31,10.93,108.1,74.37,81,26,9.78,scattered clouds,0.0,0.0
1,Albany,US,2020-04-02 20:52:28,42.6,-73.97,55.4,37,90,19.46,overcast clouds,0.0,0.0
2,Saskylakh,RU,2020-04-02 20:52:29,71.92,114.08,-11.33,86,12,10.42,few clouds,0.0,0.0
3,Montelibano,CO,2020-04-02 20:52:29,7.98,-75.42,91.4,50,88,9.37,overcast clouds,0.0,0.0
4,Vaini,TO,2020-04-02 20:52:29,-21.2,-175.2,75.42,88,100,3.44,moderate rain,0.15590551181102363,0.0
5,Grand-Bourg,GP,2020-04-02 20:52:29,15.88,-61.31,84.2,74,75,9.17,broken clouds,0.0,0.0
6,Rikitea,PF,2020-04-02 20:52:29,-23.12,-134.97,76.96,74,60,6.71,light rain,0.046850393700787404,0.0
7,Isangel,VU,2020-04-02 20:52:29,-19.55,169.27,78.08,86,100,12.88,moderate rain,0.2,0.0
8,Saint-Philippe,RE,2020-04-02 20:52:30,-21.36,55.77,73.4,88,75,5.82,broken clouds,0.0,0.0
9,Sioux Lookout,CA,2020-04-02 20:52:30,50.1,-91.92,48.2,49,90,10.29,overcast clouds,0.0,0.0
10,Northam,GB,2020-04-02 20:51:49,51.03,-4.22,51.01,76,20,10.29,few clouds,0.0,0.0
11,Miandrivazo,MG,2020-04-02 20:52:31,-19.52,45.47,76.35,75,0,1.28,clear sky,0.0,0.0
12,Barrow,US,2020-04-02 20:52:31,71.29,-156.79,10.4,92,90,9.17,overcast clouds,0.0,0.0
13,Ushuaia,AR,2020-04-02 20:52:31,-54.8,-68.3,60.8,44,40,17.22,scattered clouds,0.0,0.0
14,Georgetown,MY,2020-04-02 20:52:31,5.41,100.34,80.01,94,20,3.36,few clouds,0.0,0.0
15,Lorengau,PG,2020-04-02 20:52:31,-2.02,147.27,82.53,78,65,7.27,broken clouds,0.0,0.0
16,Puerto Leguizamo,CO,2020-04-02 20:52:32,-0.19,-74.78,71.29,92,100,1.9,moderate rain,0.1220472440944882,0.0
17,Toowoomba,AU,2020-04-02 20:51:09,-27.55,151.97,66.99,93,1,5.82,clear sky,0.0,0.0
18,Puerto Ayora,EC,2020-04-02 20:52:33,-0.74,-90.35,82.99,83,27,8.99,scattered clouds,0.0,0.0
19,Namatanai,PG,2020-04-02 20:52:33,-3.67,152.43,82.08,75,91,6.17,light rain,0.028346456692913385,0.0
20,Codrington,AU,2020-04-02 20:52:33,-38.27,141.97,59.54,79,87,15.28,overcast clouds,0.0,0.0
21,Lata,PT,2020-04-02 20:52:33,40.16,-8.33,55.99,87,0,4.7,clear sky,0.0,0.0
22,Tuatapere,NZ,2020-04-02 20:50:05,-46.13,167.68,54.0,95,26,3.0,scattered clouds,0.0,0.0
23,Yeniseysk,RU,2020-04-02 20:52:34,58.45,92.17,33.03,91,41,6.76,scattered clouds,0.0,0.0
24,Kapaa,US,2020-04-02 20:52:34,22.08,-159.32,78.8,69,1,4.7,clear sky,0.0,0.0
25,Jamestown,US,2020-04-02 20:52:34,42.1,-79.24,51.8,45,20,14.99,few clouds,0.0,0.0
26,Porto Novo,BJ,2020-04-02 20:52:35,6.5,2.6,82.4,88,20,9.17,few clouds,0.0,0.0
27,Marystown,CA,2020-04-02 20:52:35,47.17,-55.15,40.33,88,38,23.11,scattered clouds,0.0,0.0
28,Busselton,AU,2020-04-02 20:47:47,-33.65,115.33,55.0,50,82,10.71,broken clouds,0.0,0.0
29,Ola,RU,2020-04-02 20:52:36,59.58,151.28,15.6,89,0,7.67,clear sky,0.0,0.0
30,Iqaluit,CA,2020-04-02 20:52:36,63.75,-68.51,5.0,60,5,6.93,clear sky,0.0,0.0
31,Alofi,NU,2020-04-02 20:52:36,-19.06,-169.92,80.6,83,75,6.93,broken clouds,0.0,0.0
32,Bengkulu,ID,2020-04-02 20:52:36,-3.8,102.27,78.19,78,99,5.06,light rain,0.03464566929133858,0.0
33,Mitsamiouli,KM,2020-04-02 20:52:36,-11.38,43.28,83.28,70,4,4.45,clear sky,0.0,0.0
34,Awjilah,LY,2020-04-02 20:52:37,29.11,21.29,72.23,21,0,11.03,clear sky,0.0,0.0
35,Shimoda,JP,2020-04-02 20:52:37,34.67,138.95,44.01,94,7,7.43,clear sky,0.0,0.0
36,Hermanus,ZA,2020-04-02 20:52:37,-34.42,19.23,66.0,73,0,10.76,clear sky,0.0,0.0
37,Sao Joao Da Barra,BR,2020-04-02 20:50:33,-21.64,-41.05,82.4,74,40,11.41,scattered clouds,0.0,0.0
38,Nuevitas,CU,2020-04-02 20:52:38,21.55,-77.26,80.85,69,36,13.11,light rain,0.06692913385826772,0.0
39,Guerrero Negro,MX,2020-04-02 20:52:38,27.98,-114.06,66.6,58,18,16.2,few clouds,0.0,0.0
40,Dingle,PH,2020-04-02 20:52:38,11.0,122.67,77.58,84,2,9.24,clear sky,0.0,0.0
41,Camana,PE,2020-04-02 20:52:39,-16.62,-72.71,75.54,65,13,6.96,few clouds,0.0,0.0
42,Souillac,MU,2020-04-02 20:52:39,-20.52,57.52,77.0,94,40,4.97,scattered clouds,0.0,0.0
43,Ipora,BR,2020-04-02 20:52:39,-16.44,-51.12,78.53,67,0,4.18,clear sky,0.0,0.0
44,Kasulu,TZ,2020-04-02 20:52:39,-4.58,30.1,71.6,88,40,1.57,scattered clouds,0.0,0.0
45,Hithadhoo,MV,2020-04-02 20:52:39,-0.6,73.08,83.75,71,99,5.68,overcast clouds,0.0,0.0
46,East London,ZA,2020-04-02 20:52:40,-33.02,27.91,66.52,74,21,17.56,light rain,0.004330708661417323,0.0
47,Aykhal,RU,2020-04-02 20:52:41,66.0,111.5,6.8,71,75,6.71,broken clouds,0.0,0.0
48,Provideniya,RU,2020-04-02 20:52:41,64.38,-173.3,26.6,86,90,8.95,heavy snow,0.0,0.0
49,Esperance,AU,2020-04-02 20:52:41,-33.87,121.9,57.2,71,90,21.92,overcast clouds,0.0,0.0
50,Qaanaaq,GL,2020-04-02 20:52:41,77.48,-69.36,-0.89,83,96,5.41,overcast clouds,0.0,0.0
51,Cidreira,BR,2020-04-02 20:52:41,-30.18,-50.21,73.31,63,33,20.6,light rain,0.01141732283464567,0.0
52,Baykit,RU,2020-04-02 20:52:41,61.67,96.37,28.35,94,37,5.21,scattered clouds,0.0,0.0
53,Sisimiut,GL,2020-04-02 20:52:42,66.94,-53.67,7.23,85,5,10.31,clear sky,0.0,0.0
54,Narsaq,GL,2020-04-02 20:52:42,60.92,-46.05,28.4,25,20,20.8,few clouds,0.0,0.0
55,Hobart,AU,2020-04-02 20:48:08,-42.88,147.33,60.8,59,75,10.29,broken clouds,0.0,0.0
56,Geraldton,AU,2020-04-02 20:52:42,-28.77,114.6,60.8,77,41,9.17,scattered clouds,0.0,0.0
57,Yaan,NG,2020-04-02 20:52:43,7.38,8.57,86.2,57,85,9.46,light rain,0.006299212598425198,0.0
58,Mataura,NZ,2020-04-02 20:52:43,-46.19,168.86,54.0,95,49,3.0,scattered clouds,0.0,0.0
59,Ilulissat,GL,2020-04-02 20:52:43,69.22,-51.1,-0.4,59,20,8.05,few clouds,0.0,0.0
60,Altay,CN,2020-04-02 20:52:44,47.87,88.12,35.96,41,0,9.04,clear sky,0.0,0.0
61,Tautira,PF,2020-04-02 20:52:44,-17.73,-149.15,86.0,70,5,3.36,clear sky,0.0,0.0
62,Airai,TL,2020-04-02 20:52:44,-8.93,125.41,60.93,68,96,1.16,overcast clouds,0.0,0.0
63,Luganville,VU,2020-04-02 20:52:44,-15.53,167.17,78.8,94,90,4.7,overcast clouds,0.0,0.0
64,Atuona,PF,2020-04-02 20:52:44,-9.8,-139.03,82.9,77,10,15.26,light rain,0.03346456692913386,0.0
65,Cananea,MX,2020-04-02 20:52:45,30.95,-110.3,73.0,27,0,8.99,clear sky,0.0,0.0
66,Mar Del Plata,AR,2020-04-02 20:52:45,-38.0,-57.56,64.0,59,20,17.22,few clouds,0.0,0.0
67,Punta Arenas,CL,2020-04-02 20:52:46,-53.15,-70.92,59.0,62,100,21.92,overcast clouds,0.0,0.0
68,Ayan,RU,2020-04-02 20:52:46,56.45,138.17,23.65,93,100,12.95,overcast clouds,0.0,0.0
69,Sitka,US,2020-04-02 20:52:46,57.05,-135.33,37.4,44,1,3.36,clear sky,0.0,0.0
70,Morondava,MG,2020-04-02 20:52:46,-20.28,44.28,77.88,78,0,7.07,clear sky,0.0,0.0
71,Kazanskaya,RU,2020-04-02 20:52:47,45.41,40.44,38.88,70,44,6.82,scattered clouds,0.0,0.0
72,Svetlogorsk,BY,2020-04-02 20:52:47,52.63,29.73,34.65,83,0,8.01,clear sky,0.0,0.0
73,Gat,IL,2020-04-02 20:52:47,31.61,34.76,59.0,77,55,5.82,broken clouds,0.0,0.0
74,Butaritari,KI,2020-04-02 20:52:47,3.07,172.79,83.23,75,38,7.99,light rain,0.004330708661417323,0.0
75,Nhulunbuy,AU,2020-04-02 20:52:47,-12.23,136.77,77.0,88,33,3.36,scattered clouds,0.0,0.0
76,Salym,RU,2020-04-02 20:52:48,60.06,71.48,24.89,95,89,10.58,overcast clouds,0.0,0.0
77,Pevek,RU,2020-04-02 20:52:48,69.7,170.31,4.33,94,100,7.16,light snow,0.0,0.009448818897637795
78,Cape Town,ZA,2020-04-02 20:51:34,-33.93,18.42,66.99,72,0,9.17,clear sky,0.0,0.0
79,Ondarroa,ES,2020-04-02 20:52:49,43.32,-2.42,52.0,71,40,3.36,scattered clouds,0.0,0.0
80,Majene,ID,2020-04-02 20:52:49,-3.54,118.97,78.31,83,94,4.18,light rain,0.014173228346456693,0.0
81,San Policarpo,PH,2020-04-02 20:52:49,12.18,125.51,80.31,81,1,13.22,light rain,0.05472440944881889,0.0
82,Chuy,UY,2020-04-02 20:52:50,-33.7,-53.46,65.03,64,81,26.6,light rain,0.004724409448818898,0.0
83,Talnakh,RU,2020-04-02 20:52:50,69.49,88.4,30.2,86,90,40.26,overcast clouds,0.0,0.0
84,Watertown,US,2020-04-02 20:49:15,42.37,-71.18,46.4,75,90,16.11,light rain,0.0,0.0
85,Port Alfred,ZA,2020-04-02 20:52:50,-33.59,26.89,66.0,79,17,1.01,few clouds,0.0,0.0
86,Aklavik,CA,2020-04-02 20:52:50,68.22,-135.01,14.0,43,5,18.34,clear sky,0.0,0.0
87,Tuktoyaktuk,CA,2020-04-02 20:52:51,69.45,-133.04,5.0,65,5,26.4,clear sky,0.0,0.0
88,Kaeo,NZ,2020-04-02 20:50:05,-35.1,173.78,59.0,94,2,1.01,clear sky,0.0,0.0
89,Castro,BR,2020-04-02 20:52:10,-24.79,-50.01,72.84,52,99,3.78,overcast clouds,0.0,0.0
90,Owosso,US,2020-04-02 20:49:53,43.0,-84.18,61.0,30,1,3.36,clear sky,0.0,0.0
91,Avarua,CK,2020-04-02 20:52:52,-21.21,-159.78,82.4,88,40,2.24,scattered clouds,0.0,0.0
92,Saint George,US,2020-04-02 20:51:07,37.1,-113.58,61.0,18,1,13.87,clear sky,0.0,0.0
93,Okhotsk,RU,2020-04-02 20:52:52,59.38,143.3,21.25,96,100,6.35,light snow,0.0,0.017716535433070866
94,Waipawa,NZ,2020-04-02 20:52:53,-41.41,175.52,57.0,93,98,12.75,overcast clouds,0.0,0.0
95,Bathsheba,BB,2020-04-02 20:52:54,13.22,-59.52,78.13,74,99,11.9,overcast clouds,0.0,0.0
96,Kalabo,ZM,2020-04-02 20:52:54,-14.97,22.68,69.8,57,96,5.12,overcast clouds,0.0,0.0
97,Hofn,IS,2020-04-02 20:52:54,64.25,-15.21,25.41,84,51,19.62,broken clouds,0.0,0.0
98,Kavieng,PG,2020-04-02 20:52:54,-2.57,150.8,82.94,74,50,5.75,scattered clouds,0.0,0.0
99,Muroto,JP,2020-04-02 20:52:55,33.28,134.15,52.72,60,74,5.37,broken clouds,0.0,0.0
100,San Cristobal,VE,2020-04-02 20:52:55,7.77,-72.22,87.8,58,20,11.41,smoke,0.0,0.0
101,Bluff,NZ,2020-04-02 20:52:55,-46.6,168.33,54.0,95,49,3.0,scattered clouds,0.0,0.0
102,Tilichiki,RU,2020-04-02 20:52:55,60.47,166.1,8.65,91,0,6.02,clear sky,0.0,0.0
103,Rawson,AR,2020-04-02 20:52:56,-43.3,-65.1,67.96,36,40,18.03,scattered clouds,0.0,0.0
104,Port Elizabeth,ZA,2020-04-02 20:52:56,-33.92,25.57,66.2,77,0,12.75,clear sky,0.0,0.0
105,Tazovskiy,RU,2020-04-02 20:52:57,67.47,78.7,30.27,99,100,8.08,snow,0.0,0.061417322834645675
106,Formosa,AR,2020-04-02 20:52:57,-26.18,-58.18,73.4,94,90,8.05,overcast clouds,0.0,0.0
107,Yellowknife,CA,2020-04-02 20:49:16,62.46,-114.35,-0.99,70,90,16.11,light snow,0.0,0.0
108,Bam,IR,2020-04-02 20:52:57,29.11,58.36,70.29,26,8,6.55,clear sky,0.0,0.0
109,Kenora,CA,2020-04-02 20:49:05,49.82,-94.43,39.2,93,90,10.29,light rain,0.0,0.0
110,Irpa Irpa,BO,2020-04-02 20:52:57,-17.72,-66.27,75.2,29,40,9.17,scattered clouds,0.0,0.0
111,Takoradi,GH,2020-04-02 20:52:58,4.88,-1.76,80.64,85,100,5.66,overcast clouds,0.0,0.0
112,Preili,LV,2020-04-02 20:52:58,56.29,26.72,39.06,71,100,17.13,overcast clouds,0.0,0.0
113,Maniwaki,CA,2020-04-02 20:52:58,46.38,-75.97,40.8,77,100,9.53,overcast clouds,0.0,0.0
114,Shu,KZ,2020-04-02 20:52:58,43.6,73.76,48.25,67,38,4.61,scattered clouds,0.0,0.0
115,Bredasdorp,ZA,2020-04-02 20:52:58,-34.53,20.04,62.6,82,0,5.82,clear sky,0.0,0.0
116,Kyren,RU,2020-04-02 20:52:59,51.68,102.14,37.94,43,8,6.33,clear sky,0.0,0.0
117,Mirabad,AF,2020-04-02 20:52:59,30.44,61.84,72.52,21,0,10.63,clear sky,0.0,0.0
118,Tinglev,DK,2020-04-02 20:53:00,54.93,9.25,42.8,75,58,34.45,broken clouds,0.0,0.0
119,Ribeira Grande,PT,2020-04-02 20:53:00,38.52,-28.7,61.52,87,88,14.67,light rain,0.022047244094488192,0.0
120,Marienburg,PL,2020-04-02 20:53:00,54.04,19.03,46.0,52,99,19.46,overcast clouds,0.0,0.0
121,Kavaratti,IN,2020-04-02 20:53:00,10.57,72.64,82.98,72,8,5.08,clear sky,0.0,0.0
122,New Norfolk,AU,2020-04-02 20:53:00,-42.78,147.06,59.0,72,75,9.17,broken clouds,0.0,0.0
123,Mbandaka,CD,2020-04-02 20:53:00,0.05,18.26,77.13,73,62,3.56,broken clouds,0.0,0.0
124,Mezhdurechensk,RU,2020-04-02 20:53:00,53.69,88.06,39.74,72,93,3.87,light rain,0.014173228346456693,0.0
125,Brae,GB,2020-04-02 20:53:01,60.4,-1.35,37.4,64,98,20.8,light snow,0.0,0.010629921259842521
126,Madang,PG,2020-04-02 20:53:01,-5.22,145.8,78.48,82,77,4.79,light rain,0.023622047244094488,0.0
127,Edd,ER,2020-04-02 20:53:02,13.93,41.69,86.83,54,7,11.27,clear sky,0.0,0.0
128,Pisco,PE,2020-04-02 20:53:02,-13.7,-76.22,80.01,30,8,10.29,clear sky,0.0,0.0
129,Alice Springs,AU,2020-04-02 20:53:02,-23.7,133.88,75.2,69,91,5.61,overcast clouds,0.0,0.0
130,Lagoa,PT,2020-04-02 20:53:03,39.05,-27.98,61.7,86,100,22.28,light rain,0.006299212598425198,0.0
131,Kashi,CN,2020-04-02 20:53:03,39.45,75.98,53.6,27,20,2.24,dust,0.0,0.0
132,Cervo,ES,2020-04-02 20:53:03,43.67,-7.41,45.0,93,100,8.99,overcast clouds,0.0,0.0
133,Atbasar,KZ,2020-04-02 20:53:03,51.8,68.33,27.84,92,25,6.2,scattered clouds,0.0,0.0
134,Tromso,NO,2020-04-02 20:52:18,69.65,18.96,15.8,72,100,3.31,overcast clouds,0.0,0.0
135,Buraydah,SA,2020-04-02 20:53:05,26.33,43.98,77.0,27,40,9.17,scattered clouds,0.0,0.0
136,Acajutla,SV,2020-04-02 20:53:05,13.59,-89.83,84.99,75,0,5.01,clear sky,0.0,0.0
137,Lebu,CL,2020-04-02 20:53:05,-37.62,-73.65,61.83,61,0,21.99,clear sky,0.0,0.0
138,Maceio,BR,2020-04-02 20:51:58,-9.67,-35.74,82.4,78,75,10.29,broken clouds,0.0,0.0
139,Harper,LR,2020-04-02 20:53:05,4.38,-7.72,82.08,80,98,1.25,light rain,0.025590551181102365,0.0
140,Sao Raimundo Das Mangabeiras,BR,2020-04-02 20:50:28,-7.02,-45.48,81.45,74,48,4.68,light rain,0.014960629921259844,0.0
141,Newport,GB,2020-04-02 20:53:05,51.59,-3.0,50.0,87,75,6.93,broken clouds,0.0,0.0
142,Mahebourg,MU,2020-04-02 20:53:06,-20.41,57.7,77.0,94,40,4.9,scattered clouds,0.0,0.0
143,Hilo,US,2020-04-02 20:50:45,19.73,-155.09,78.8,65,1,8.05,clear sky,0.0,0.0
144,Sorbhog,IN,2020-04-02 20:53:07,26.5,90.87,74.05,33,71,8.08,broken clouds,0.0,0.0
145,Sungairaya,ID,2020-04-02 20:53:07,0.7,108.9,77.83,88,50,4.45,scattered clouds,0.0,0.0
146,Swan Hill,AU,2020-04-02 20:53:07,-35.34,143.55,62.87,59,100,10.18,overcast clouds,0.0,0.0
147,Zhezkazgan,KZ,2020-04-02 20:53:07,47.8,67.71,49.08,60,99,2.59,overcast clouds,0.0,0.0
148,Toora-Khem,RU,2020-04-02 20:53:07,52.47,96.11,23.49,79,10,1.61,clear sky,0.0,0.0
149,Xichang,CN,2020-04-02 20:53:08,27.9,102.26,51.03,41,40,1.81,scattered clouds,0.0,0.0
150,Luderitz,NA,2020-04-02 20:53:08,-26.65,15.16,68.27,56,0,6.69,clear sky,0.0,0.0
151,Sao Filipe,CV,2020-04-02 20:53:08,14.9,-24.5,75.65,70,20,11.48,few clouds,0.0,0.0
152,Khatanga,RU,2020-04-02 20:53:08,71.97,102.5,15.87,91,100,18.07,overcast clouds,0.0,0.0
153,Chapais,CA,2020-04-02 20:53:09,49.78,-74.85,33.8,88,90,11.41,light snow,0.0,0.0
154,Sakakah,SA,2020-04-02 20:53:09,29.97,40.21,64.4,34,0,4.7,clear sky,0.0,0.0
155,Baiculesti,RO,2020-04-02 20:53:09,45.07,24.7,33.93,68,3,1.48,clear sky,0.0,0.0
156,Port Lincoln,AU,2020-04-02 20:53:10,-34.73,135.87,60.3,76,10,12.84,clear sky,0.0,0.0
157,Alausi,EC,2020-04-02 20:53:10,-2.2,-78.83,66.2,63,90,6.93,overcast clouds,0.0,0.0
158,Collie,AU,2020-04-02 20:53:10,-33.37,116.15,55.0,50,45,3.67,scattered clouds,0.0,0.0
159,Acapulco,MX,2020-04-02 20:51:26,16.86,-99.89,86.0,62,5,10.29,clear sky,0.0,0.0
160,Marsh Harbour,BS,2020-04-02 20:53:10,26.54,-77.06,71.01,62,9,8.97,clear sky,0.0,0.0
161,Kodiak,US,2020-04-02 20:51:42,57.79,-152.41,41.0,80,75,5.82,broken clouds,0.0,0.0
162,Batemans Bay,AU,2020-04-02 20:53:11,-35.72,150.18,57.0,100,50,6.33,scattered clouds,0.0,0.0
163,Disna,BY,2020-04-02 20:53:11,55.57,28.2,39.02,77,100,16.08,overcast clouds,0.0,0.0
164,Santa Cruz De La Palma,ES,2020-04-02 20:53:11,28.68,-17.76,66.2,72,75,6.93,broken clouds,0.0,0.0
165,Buckingham,GB,2020-04-02 20:53:12,52.0,-0.99,51.01,76,40,5.82,scattered clouds,0.0,0.0
166,Gizo,SB,2020-04-02 20:53:12,-8.1,156.84,81.63,81,100,11.5,light rain,0.030314960629921263,0.0
167,Lac Du Bonnet,CA,2020-04-02 20:53:12,50.25,-96.06,19.99,95,100,10.6,snow,0.0,0.09960629921259842
168,Ananas,HT,2020-04-02 20:53:12,19.25,-71.96,81.52,46,63,5.7,broken clouds,0.0,0.0
169,Ust-Maya,RU,2020-04-02 20:53:12,60.42,134.53,-0.74,90,63,4.03,broken clouds,0.0,0.0
170,Tugulym,RU,2020-04-02 20:53:12,57.06,64.64,28.4,58,68,11.18,broken clouds,0.0,0.0
171,Bobo Dioulasso,BF,2020-04-02 20:53:12,11.18,-4.3,91.2,12,93,1.68,overcast clouds,0.0,0.0
172,Rognan,NO,2020-04-02 20:53:12,67.1,15.39,30.2,80,90,6.93,light snow,0.0,0.0
173,Port Moresby,PG,2020-04-02 20:53:12,-9.44,147.18,77.09,81,85,2.37,light rain,0.005905511811023622,0.0
174,Yanam,IN,2020-04-02 20:53:13,16.73,82.22,78.55,85,3,2.98,clear sky,0.0,0.0
175,Itarema,BR,2020-04-02 20:53:13,-2.92,-39.92,80.33,85,100,9.13,overcast clouds,0.0,0.0
176,Stykkisholmur,IS,2020-04-02 20:53:13,65.08,-22.73,25.75,88,32,10.0,scattered clouds,0.0,0.0
177,Quatre Cocos,MU,2020-04-02 20:53:13,-20.21,57.76,77.0,94,40,4.76,scattered clouds,0.0,0.0
178,Nurlat,RU,2020-04-02 20:53:13,54.43,50.81,33.17,85,89,9.73,overcast clouds,0.0,0.0
179,Winslow,US,2020-04-02 20:53:13,35.02,-110.7,71.6,14,1,20.8,clear sky,0.0,0.0
180,Laguna,US,2020-04-02 20:53:13,38.42,-121.42,68.0,22,1,11.41,clear sky,0.0,0.0
181,Cayenne,GF,2020-04-02 20:53:14,4.93,-52.33,80.6,83,75,3.31,broken clouds,0.0,0.0
182,Norsup,VU,2020-04-02 20:53:14,-16.07,167.38,78.8,94,90,4.7,overcast clouds,0.0,0.0
183,Faanui,PF,2020-04-02 20:53:14,-16.48,-151.75,82.49,76,3,13.67,light rain,0.028346456692913385,0.0
184,Lompoc,US,2020-04-02 20:53:14,34.64,-120.46,69.8,37,0,11.41,clear sky,0.0,0.0
185,Kupang,ID,2020-04-02 20:53:14,-10.17,123.58,81.25,75,11,6.4,few clouds,0.0,0.0
186,Salalah,OM,2020-04-02 20:53:14,17.02,54.09,80.6,83,75,6.93,broken clouds,0.0,0.0
187,Cherskiy,RU,2020-04-02 20:53:15,68.75,161.3,-0.56,92,86,6.11,overcast clouds,0.0,0.0
188,Bath,GB,2020-04-02 20:52:17,51.38,-2.36,50.0,76,14,6.93,few clouds,0.0,0.0
189,Boyolangu,ID,2020-04-02 20:53:15,-8.12,111.89,76.8,84,79,2.48,light rain,0.013779527559055118,0.0
190,Luena,AO,2020-04-02 20:53:15,-11.78,19.92,62.69,67,100,3.24,light rain,0.009055118110236222,0.0
191,Meulaboh,ID,2020-04-02 20:53:15,4.14,96.13,78.53,82,77,4.27,light rain,0.020078740157480318,0.0
192,Lavrentiya,RU,2020-04-02 20:53:15,65.58,-171.0,20.01,97,100,4.38,overcast clouds,0.0,0.0
193,Miraflores,MX,2020-04-02 20:53:16,19.22,-98.81,87.8,22,40,5.82,scattered clouds,0.0,0.0
194,Gudari,IN,2020-04-02 20:53:16,19.35,83.78,79.68,60,42,1.52,scattered clouds,0.0,0.0
195,Porto Walter,BR,2020-04-02 20:53:16,-8.27,-72.74,90.48,51,49,0.47,light rain,0.008661417322834646,0.0
196,Broken Hill,AU,2020-04-02 20:53:16,-31.95,141.43,66.2,72,100,3.36,moderate rain,0.21692913385826773,0.0
197,Belaya Gora,RU,2020-04-02 20:53:16,68.53,146.42,-9.85,88,87,4.38,overcast clouds,0.0,0.0
198,Costinesti,RO,2020-04-02 20:53:17,43.95,28.63,37.4,64,40,4.7,scattered clouds,0.0,0.0
199,Zeya,RU,2020-04-02 20:53:17,53.75,127.27,8.62,86,83,7.9,broken clouds,0.0,0.0
200,Arraial Do Cabo,BR,2020-04-02 20:53:17,-22.97,-42.03,80.6,83,40,10.29,scattered clouds,0.0,0.0
201,Flin Flon,CA,2020-04-02 20:53:17,54.77,-101.86,14.0,66,90,6.93,light snow,0.0,0.0
202,Yamada,JP,2020-04-02 20:53:17,39.47,141.95,40.15,74,0,5.97,clear sky,0.0,0.0
203,Dubai,AE,2020-04-02 20:52:03,25.26,55.3,80.01,69,7,3.36,clear sky,0.0,0.0
204,Cabedelo,BR,2020-04-02 20:53:18,-6.98,-34.83,82.4,83,40,9.17,scattered clouds,0.0,0.0
205,Bethel,US,2020-04-02 20:53:05,41.37,-73.41,57.2,40,40,13.87,scattered clouds,0.0,0.0
206,Petrivka,UA,2020-04-02 20:53:18,46.97,30.96,33.8,64,8,7.23,clear sky,0.0,0.0
207,Gao,ML,2020-04-02 20:53:18,16.64,1.64,88.88,10,0,11.05,clear sky,0.0,0.0
208,Murgab,TM,2020-04-02 20:53:18,37.5,61.97,64.4,59,75,23.04,broken clouds,0.0,0.0
209,Umm Bab,QA,2020-04-02 20:53:18,25.21,50.81,79.0,53,40,6.93,scattered clouds,0.0,0.0
210,Aksu,CN,2020-04-02 20:53:18,41.12,80.26,48.96,34,98,4.07,overcast clouds,0.0,0.0
211,Dikson,RU,2020-04-02 20:53:19,73.51,80.55,21.42,96,100,27.29,light snow,0.0,0.01299212598425197
212,Ndende,GA,2020-04-02 20:53:19,-2.4,11.36,75.87,90,76,1.72,broken clouds,0.0,0.0
213,Puerto Del Rosario,ES,2020-04-02 20:53:19,28.5,-13.86,64.4,68,20,12.75,few clouds,0.0,0.0
214,Aktau,KZ,2020-04-02 20:53:19,43.65,51.2,46.4,93,75,15.66,light intensity shower rain,0.0,0.0
215,Taoudenni,ML,2020-04-02 20:53:19,22.68,-3.98,87.37,12,100,7.23,overcast clouds,0.0,0.0
216,Mount Gambier,AU,2020-04-02 20:53:20,-37.83,140.77,57.2,87,75,6.93,broken clouds,0.0,0.0
217,Kuytun,RU,2020-04-02 20:53:20,54.34,101.5,28.62,85,11,5.17,few clouds,0.0,0.0
218,Klaksvik,FO,2020-04-02 20:53:20,62.23,-6.59,32.0,89,98,14.99,light snow,0.0,0.006692913385826772
219,Neustrelitz,DE,2020-04-02 20:53:20,53.37,13.08,45.0,61,100,7.0,overcast clouds,0.0,0.0
220,Sibolga,ID,2020-04-02 20:53:20,1.74,98.78,77.5,77,100,3.8,light rain,0.02283464566929134,0.0
221,Bilma,NE,2020-04-02 20:53:21,18.69,12.92,84.52,14,0,2.62,clear sky,0.0,0.0
222,San Patricio,MX,2020-04-02 20:53:21,19.22,-104.7,86.0,74,5,23.04,clear sky,0.0,0.0
223,Hede,CN,2020-04-02 20:53:21,33.77,120.25,45.28,59,54,3.56,broken clouds,0.0,0.0
224,Karabulak,RU,2020-04-02 20:53:21,43.3,44.9,33.8,100,90,4.47,overcast clouds,0.0,0.0
225,Port Macquarie,AU,2020-04-02 20:53:21,-31.43,152.92,66.2,100,93,4.7,overcast clouds,0.0,0.0
226,Oussouye,SN,2020-04-02 20:53:21,12.48,-16.55,76.01,60,53,7.94,broken clouds,0.0,0.0
227,Troyes,FR,2020-04-02 20:53:22,48.33,4.08,41.0,86,0,5.82,clear sky,0.0,0.0
228,Tiksi,RU,2020-04-02 20:53:22,71.69,128.87,-4.9,90,93,2.91,overcast clouds,0.0,0.0
229,Ancud,CL,2020-04-02 20:53:22,-41.87,-73.82,64.4,59,1,6.93,clear sky,0.0,0.0
230,Flinders,AU,2020-04-02 20:53:22,-34.58,150.86,66.0,100,53,7.07,broken clouds,0.0,0.0
231,Nanortalik,GL,2020-04-02 20:53:22,60.14,-45.24,24.64,79,1,6.42,clear sky,0.0,0.0
232,Terracina,IT,2020-04-02 20:53:22,41.29,13.22,48.0,60,92,3.0,overcast clouds,0.0,0.0
233,Genhe,CN,2020-04-02 20:53:23,50.78,121.52,21.99,85,86,14.05,light snow,0.0,0.023228346456692913
234,Puerto Cabezas,NI,2020-04-02 20:53:23,14.04,-83.39,86.0,74,75,4.7,haze,0.0,0.0
235,Saldanha,ZA,2020-04-02 20:53:23,-33.01,17.94,73.4,35,0,5.82,clear sky,0.0,0.0
236,Tual,ID,2020-04-02 20:53:23,-5.67,132.75,83.05,78,100,14.54,moderate rain,0.3291338582677165,0.0
237,Billings,US,2020-04-02 20:53:23,45.78,-108.5,24.01,72,90,6.93,light snow,0.0,0.0
238,Caravelas,BR,2020-04-02 20:53:24,-17.71,-39.25,80.51,80,15,9.26,few clouds,0.0,0.0
239,Pacific Grove,US,2020-04-02 20:52:04,36.62,-121.92,66.0,48,1,9.17,clear sky,0.0,0.0
240,Vesele,UA,2020-04-02 20:53:24,47.01,34.91,37.54,68,0,6.29,clear sky,0.0,0.0
241,Teguldet,RU,2020-04-02 20:53:24,57.31,88.17,38.7,89,98,9.22,light rain,0.01889763779527559,0.0
242,Bjornevatn,NO,2020-04-02 20:53:24,69.67,29.98,15.8,85,20,6.93,few clouds,0.0,0.0
243,Sakaiminato,JP,2020-04-02 20:53:24,35.55,133.23,37.4,93,40,4.7,scattered clouds,0.0,0.0
244,Yulara,AU,2020-04-02 20:53:25,-25.24,130.99,73.4,60,89,4.7,overcast clouds,0.0,0.0
245,Tasiilaq,GL,2020-04-02 20:53:25,65.61,-37.64,23.0,57,5,4.7,clear sky,0.0,0.0
246,Pilar,BR,2020-04-02 20:53:25,-9.6,-35.96,82.4,78,75,10.29,broken clouds,0.0,0.0
247,Dingli,MT,2020-04-02 20:53:25,35.86,14.38,57.2,82,90,18.34,overcast clouds,0.0,0.0
248,Nikolskoye,RU,2020-04-02 20:53:25,59.7,30.79,39.99,80,75,6.71,broken clouds,0.0,0.0
249,Kiama,AU,2020-04-02 20:53:25,-34.68,150.87,66.0,100,46,7.4,scattered clouds,0.0,0.0
250,Wuchi,CN,2020-04-02 20:53:26,29.38,103.02,40.75,50,100,1.99,light rain,0.0594488188976378,0.0
251,Salinopolis,BR,2020-04-02 20:52:06,-0.61,-47.36,81.9,83,100,11.18,light rain,0.012204724409448819,0.0
252,Pimentel,PE,2020-04-02 20:53:26,-6.84,-79.93,78.26,70,8,12.95,clear sky,0.0,0.0
253,Oranjestad,AW,2020-04-02 20:53:26,12.52,-70.03,86.0,62,20,18.34,few clouds,0.0,0.0
254,Ilheus,BR,2020-04-02 20:51:26,-14.79,-39.05,86.0,70,1,4.7,clear sky,0.0,0.0
255,Bitung,ID,2020-04-02 20:53:26,1.45,125.18,73.4,100,20,5.68,few clouds,0.0,0.0
256,Post Falls,US,2020-04-02 20:51:41,47.72,-116.95,46.0,60,90,12.75,overcast clouds,0.0,0.0
257,Ponta Delgada,PT,2020-04-02 20:53:27,37.73,-25.67,60.8,100,40,12.75,scattered clouds,0.0,0.0
258,Teacapan,MX,2020-04-02 20:53:27,22.55,-105.75,83.98,36,0,11.59,clear sky,0.0,0.0
259,Bentiu,SS,2020-04-02 20:53:27,9.23,29.83,87.24,16,4,3.04,clear sky,0.0,0.0
260,Juneau,US,2020-04-02 20:51:10,58.3,-134.42,39.2,25,1,14.99,clear sky,0.0,0.0
261,Carnarvon,AU,2020-04-02 20:53:27,-24.87,113.63,69.8,77,18,14.99,few clouds,0.0,0.0
262,Severo-Kurilsk,RU,2020-04-02 20:53:27,50.68,156.12,31.73,95,100,41.58,snow,0.0,0.10196850393700788
263,Taltal,CL,2020-04-02 20:53:28,-25.4,-70.48,69.69,65,10,5.06,clear sky,0.0,0.0
264,Maragogi,BR,2020-04-02 20:53:28,-9.01,-35.22,80.29,81,100,8.86,light rain,0.048818897637795275,0.0
265,Saryozek,KZ,2020-04-02 20:53:28,44.36,77.98,45.0,64,100,1.95,overcast clouds,0.0,0.0
266,Sambava,MG,2020-04-02 20:53:28,-14.27,50.17,77.27,88,61,6.31,light rain,0.09212598425196851,0.0
267,Paramonga,PE,2020-04-02 20:53:28,-10.67,-77.83,76.86,68,44,10.74,scattered clouds,0.0,0.0
268,Tanza,PH,2020-04-02 20:53:28,14.68,120.94,79.0,78,20,2.24,few clouds,0.0,0.0
269,Banyuwangi,ID,2020-04-02 20:53:29,-8.23,114.36,78.85,81,40,3.67,light rain,0.06181102362204725,0.0
270,Palana,RU,2020-04-02 20:53:29,59.12,159.97,10.51,93,0,4.88,clear sky,0.0,0.0
271,Kudahuvadhoo,MV,2020-04-02 20:53:29,2.67,72.89,83.21,76,23,6.6,few clouds,0.0,0.0
272,Jasper,US,2020-04-02 20:53:29,37.2,-94.35,73.99,43,75,21.92,thunderstorm,0.0,0.0
273,Oyama,JP,2020-04-02 20:53:30,36.3,139.8,51.01,80,20,1.12,few clouds,0.0,0.0
274,Saint-Pierre,RE,2020-04-02 20:53:30,-21.34,55.48,73.4,88,75,5.82,broken clouds,0.0,0.0
275,Gberia Fotombu,SL,2020-04-02 20:53:30,9.88,-11.17,84.81,40,8,5.82,clear sky,0.0,0.0
276,Tortoli,IT,2020-04-02 20:53:30,39.93,9.66,51.8,76,75,5.82,broken clouds,0.0,0.0
277,Clyde River,CA,2020-04-02 20:53:30,70.47,-68.59,-2.2,70,5,6.93,clear sky,0.0,0.0
278,Fort Nelson,CA,2020-04-02 20:53:30,58.81,-122.7,10.4,35,5,3.11,clear sky,0.0,0.0
279,Sulangan,PH,2020-04-02 20:53:31,11.14,123.72,80.49,80,0,13.22,clear sky,0.0,0.0
280,Lucea,JM,2020-04-02 20:53:31,18.45,-78.17,82.99,74,75,10.29,broken clouds,0.0,0.0
281,Mahuva,IN,2020-04-02 20:53:31,21.09,71.76,81.68,40,0,10.18,clear sky,0.0,0.0
282,Veraval,IN,2020-04-02 20:53:31,20.9,70.37,75.42,66,0,10.63,clear sky,0.0,0.0
283,Birjand,IR,2020-04-02 20:53:31,32.87,59.22,51.8,53,51,18.34,broken clouds,0.0,0.0
284,Acarau,BR,2020-04-02 20:53:32,-2.89,-40.12,80.08,86,100,7.99,light rain,0.007086614173228346,0.0
285,Kaitangata,NZ,2020-04-02 20:53:32,-46.28,169.85,55.99,79,11,2.1,few clouds,0.0,0.0
286,Bhiwani,IN,2020-04-02 20:53:32,28.78,76.13,68.36,31,0,5.73,clear sky,0.0,0.0
287,Cabo San Lucas,MX,2020-04-02 20:53:32,22.89,-109.91,84.99,41,5,12.75,clear sky,0.0,0.0
288,La Plata,AR,2020-04-02 20:51:18,-34.92,-57.95,71.01,52,75,25.28,broken clouds,0.0,0.0
289,Adelaide,AU,2020-04-02 20:51:15,-34.93,138.6,60.01,82,18,5.82,few clouds,0.0,0.0
290,Ligayan,PH,2020-04-02 20:53:33,4.65,119.47,82.87,71,30,5.44,light rain,0.005905511811023622,0.0
291,Ozu,JP,2020-04-02 20:53:33,33.5,132.55,46.0,70,68,1.99,broken clouds,0.0,0.0
292,Kungurtug,RU,2020-04-02 20:53:33,50.6,97.52,22.55,61,0,3.69,clear sky,0.0,0.0
293,Vila Velha,BR,2020-04-02 20:53:33,-20.33,-40.29,82.99,78,40,13.87,scattered clouds,0.0,0.0
294,Touros,BR,2020-04-02 20:53:05,-5.2,-35.46,82.4,83,40,9.17,shower rain,0.0,0.0
295,Chokurdakh,RU,2020-04-02 20:53:34,70.63,147.92,-11.78,90,95,6.13,overcast clouds,0.0,0.0
296,Razole,IN,2020-04-02 20:53:34,16.48,81.83,75.87,93,4,0.98,clear sky,0.0,0.0
297,Busdi,PH,2020-04-02 20:53:34,8.28,125.25,65.55,67,8,0.56,clear sky,0.0,0.0
298,Goderich,CA,2020-04-02 20:51:03,43.75,-81.72,45.0,75,25,13.11,scattered clouds,0.0,0.0
299,Providencia,MX,2020-04-02 20:53:34,28.72,-111.58,88.0,15,5,4.7,clear sky,0.0,0.0
300,Nova Olimpia,BR,2020-04-02 20:51:30,-14.8,-57.29,83.73,77,97,2.57,light rain,0.05196850393700788,0.0
301,Dubbo,AU,2020-04-02 20:53:34,-32.25,148.62,64.4,100,90,5.82,overcast clouds,0.0,0.0
302,Koulikoro,ML,2020-04-02 20:53:35,14.0,-7.75,89.15,11,0,8.63,clear sky,0.0,0.0
303,Torbay,CA,2020-04-02 20:53:35,47.67,-52.73,41.0,100,90,14.99,fog,0.0,0.0
304,Leningradskiy,RU,2020-04-02 20:53:35,69.38,178.42,4.77,86,4,3.24,clear sky,0.0,0.0
305,Awbari,LY,2020-04-02 20:53:35,26.59,12.78,76.71,14,34,8.61,scattered clouds,0.0,0.0
306,Tiznit,MA,2020-04-02 20:53:35,29.58,-9.5,53.1,64,18,3.98,few clouds,0.0,0.0
307,Mayo,US,2020-04-02 20:53:17,38.89,-76.51,62.01,38,75,16.11,light rain,0.0,0.0
308,Huarmey,PE,2020-04-02 20:53:36,-10.07,-78.15,81.64,56,12,9.15,few clouds,0.0,0.0
309,Znamenskoye,RU,2020-04-02 20:53:36,57.13,73.83,28.4,95,35,9.98,scattered clouds,0.0,0.0
310,Gamba,GA,2020-04-02 20:53:36,-2.65,10.0,79.86,90,71,8.05,light rain,0.013779527559055118,0.0
311,Cockburn Town,TC,2020-04-02 20:53:36,21.46,-71.14,79.47,76,1,10.11,light rain,0.007874015748031498,0.0
312,Victoria,HK,2020-04-02 20:50:18,22.29,114.16,70.0,77,20,19.46,few clouds,0.0,0.0
313,Constitucion,CL,2020-04-02 20:53:36,-35.33,-72.42,69.46,41,5,13.09,clear sky,0.0,0.0
314,Bandarbeyla,SO,2020-04-02 20:53:36,9.49,50.81,79.61,70,65,8.12,broken clouds,0.0,0.0
315,Korla,CN,2020-04-02 20:53:37,41.76,86.15,49.19,29,100,7.02,overcast clouds,0.0,0.0
316,Upernavik,GL,2020-04-02 20:53:37,72.79,-56.15,-2.38,90,89,9.86,overcast clouds,0.0,0.0
317,Thessalon,CA,2020-04-02 20:53:37,46.25,-83.57,50.0,23,1,11.41,clear sky,0.0,0.0
318,Wasilla,US,2020-04-02 20:53:32,61.58,-149.44,34.0,80,90,2.57,overcast clouds,0.0,0.0
319,Hella,NO,2020-04-02 20:53:37,67.2,14.43,30.2,80,90,6.93,light snow,0.0,0.0
320,Kholm-Zhirkovskiy,RU,2020-04-02 20:53:37,55.52,33.47,36.88,82,100,11.99,light rain,0.004330708661417323,0.0
321,Oistins,BB,2020-04-02 20:53:37,13.07,-59.53,77.52,74,100,11.79,overcast clouds,0.0,0.0
322,Vardo,NO,2020-04-02 20:53:38,70.37,31.11,14.0,78,40,5.82,shower rain,0.0,0.0
323,Canico,PT,2020-04-02 20:53:38,32.63,-16.85,62.6,72,75,10.29,broken clouds,0.0,0.0
324,Vanavara,RU,2020-04-02 20:53:38,60.34,102.28,21.92,94,73,6.31,broken clouds,0.0,0.0
325,Yendi,GH,2020-04-02 20:53:38,9.44,-0.01,93.83,38,100,8.32,overcast clouds,0.0,0.0
326,Tiangua,BR,2020-04-02 20:53:38,-3.73,-40.99,70.23,82,100,2.89,light rain,0.03976377952755906,0.0
327,Vestmannaeyjar,IS,2020-04-02 20:53:38,63.44,-20.27,31.89,87,62,10.85,broken clouds,0.0,0.0
328,Westport,US,2020-04-02 20:53:38,41.14,-73.36,59.0,35,75,24.16,broken clouds,0.0,0.0
329,Sayyan,YE,2020-04-02 20:53:39,15.17,44.32,63.27,27,100,0.6,overcast clouds,0.0,0.0
330,Beloha,MG,2020-04-02 20:53:39,-25.17,45.05,67.73,73,5,14.16,clear sky,0.0,0.0
331,Morehead,US,2020-04-02 20:53:39,37.27,-87.18,66.99,33,1,4.18,clear sky,0.0,0.0
332,Kyabe,TD,2020-04-02 20:53:39,9.45,18.94,90.82,20,70,3.67,broken clouds,0.0,0.0
333,Chumikan,RU,2020-04-02 20:53:39,54.72,135.31,24.12,92,100,9.98,light snow,0.0,0.030708661417322838
334,Kahului,US,2020-04-02 20:53:39,20.89,-156.47,80.6,61,40,17.22,scattered clouds,0.0,0.0
335,Umm Kaddadah,SD,2020-04-02 20:53:39,13.6,26.69,86.47,11,2,14.32,clear sky,0.0,0.0
336,Dvinskoy,RU,2020-04-02 20:53:40,62.15,45.12,24.31,96,19,6.08,few clouds,0.0,0.0
337,Katsuura,JP,2020-04-02 20:53:40,35.13,140.3,48.2,45,20,10.29,few clouds,0.0,0.0
338,Boshnyakovo,RU,2020-04-02 20:53:40,49.63,142.17,27.64,96,100,8.16,light snow,0.0,0.024803149606299216
339,Suntar,RU,2020-04-02 20:53:40,62.14,117.63,4.28,92,3,3.94,clear sky,0.0,0.0
340,Mahajanga,MG,2020-04-02 20:53:40,-15.72,46.32,82.4,78,20,5.82,few clouds,0.0,0.0
341,Ipixuna,BR,2020-04-02 20:53:40,-1.76,-48.8,82.4,83,40,4.7,thunderstorm,0.0,0.0
342,Fortuna,US,2020-04-02 20:53:40,40.6,-124.16,55.0,57,1,17.22,clear sky,0.0,0.0
343,Rorvik,NO,2020-04-02 20:53:41,64.86,11.24,33.78,88,100,31.16,light snow,0.0,0.017716535433070866
344,Verkhnevilyuysk,RU,2020-04-02 20:53:41,63.45,120.32,2.88,93,66,4.85,broken clouds,0.0,0.0
345,Nouadhibou,MR,2020-04-02 20:53:41,20.93,-17.03,66.2,82,27,14.99,scattered clouds,0.0,0.0
346,Rockhampton,AU,2020-04-02 20:53:41,-23.38,150.5,71.6,88,18,4.7,few clouds,0.0,0.0
347,Iberia,US,2020-04-02 20:53:41,29.95,-91.75,73.4,49,1,11.41,clear sky,0.0,0.0
348,Tura,IN,2020-04-02 20:53:41,25.52,90.22,71.58,44,50,4.61,light rain,0.014566929133858268,0.0
349,Amazar,RU,2020-04-02 20:53:41,53.86,120.88,12.42,87,8,5.53,clear sky,0.0,0.0
350,Norman Wells,CA,2020-04-02 20:53:42,65.28,-126.83,10.4,55,5,28.86,clear sky,0.0,0.0
351,Am Timan,TD,2020-04-02 20:53:42,11.03,20.28,87.46,15,54,1.57,broken clouds,0.0,0.0
352,Kushima,JP,2020-04-02 20:53:42,31.46,131.23,54.37,65,100,5.39,overcast clouds,0.0,0.0
353,Belyy Yar,RU,2020-04-02 20:53:42,53.6,91.39,24.8,73,17,2.24,smoke,0.0,0.0
354,Biak,ID,2020-04-02 20:53:42,-0.91,122.88,79.59,74,94,3.33,overcast clouds,0.0,0.0
355,Sitarganj,IN,2020-04-02 20:53:43,28.93,79.7,65.77,28,0,6.33,clear sky,0.0,0.0
356,Raub,MY,2020-04-02 20:53:43,3.79,101.86,73.99,88,62,0.58,light rain,0.07992125984251969,0.0
357,Usinsk,RU,2020-04-02 20:53:43,65.99,57.53,10.17,90,98,1.61,overcast clouds,0.0,0.0
358,Itamaraca,BR,2020-04-02 20:53:43,-7.75,-34.83,82.4,83,40,8.05,scattered clouds,0.0,0.0
359,Barra Patuca,HN,2020-04-02 20:53:43,15.8,-84.28,83.01,65,0,15.28,clear sky,0.0,0.0
360,Zhigansk,RU,2020-04-02 20:53:43,66.77,123.37,2.66,93,86,2.98,overcast clouds,0.0,0.0
361,Itanhem,BR,2020-04-02 20:53:04,-17.17,-40.33,77.18,81,19,5.64,light rain,0.018503937007874015,0.0
362,Minturno,IT,2020-04-02 20:53:43,41.26,13.72,53.01,87,75,4.36,broken clouds,0.0,0.0
363,Heihe,CN,2020-04-02 20:53:44,50.24,127.49,28.4,50,40,6.71,scattered clouds,0.0,0.0
364,Bowen,AU,2020-04-02 20:53:44,-20.02,148.23,71.01,94,53,5.82,broken clouds,0.0,0.0
365,Nantucket,US,2020-04-02 20:53:44,41.28,-70.1,44.6,87,90,25.28,light rain,0.0,0.0
366,Mindelo,CV,2020-04-02 20:53:44,16.89,-24.98,73.4,73,20,20.8,few clouds,0.0,0.0
367,Padang,ID,2020-04-02 20:53:44,-0.95,100.35,78.39,73,99,2.71,light rain,0.03700787401574803,0.0
368,Chara,RU,2020-04-02 20:53:44,56.91,118.26,5.32,77,59,4.61,broken clouds,0.0,0.0
369,Abu Kamal,SY,2020-04-02 20:53:44,34.45,40.92,64.74,47,1,7.0,clear sky,0.0,0.0
370,Te Anau,NZ,2020-04-02 20:53:45,-45.42,167.72,53.01,73,18,0.67,few clouds,0.0,0.0
371,Hasaki,JP,2020-04-02 20:53:45,35.73,140.83,33.8,86,20,1.12,few clouds,0.0,0.0
372,Pavlivka,UA,2020-04-02 20:53:45,49.44,28.46,38.5,62,0,7.16,clear sky,0.0,0.0
373,Hammerfest,NO,2020-04-02 20:53:45,70.66,23.68,24.8,72,76,10.29,broken clouds,0.0,0.0
374,Sorland,NO,2020-04-02 20:53:45,67.67,12.69,24.8,62,78,9.17,light snow,0.0,0.006692913385826772
375,Mikhaylovka,RU,2020-04-02 20:53:45,50.06,43.24,36.0,47,7,8.03,clear sky,0.0,0.0
376,Arvika,SE,2020-04-02 20:53:45,59.66,12.59,35.01,86,74,14.99,light snow,0.0,0.016141732283464567
377,Were Ilu,ET,2020-04-02 20:53:46,10.6,39.43,55.99,39,28,4.81,scattered clouds,0.0,0.0
378,Gejiu,CN,2020-04-02 20:53:46,23.31,103.16,53.13,58,61,4.16,broken clouds,0.0,0.0
379,Copalillo,MX,2020-04-02 20:53:46,18.03,-99.12,95.0,25,0,1.99,clear sky,0.0,0.0
380,Fallon,US,2020-04-02 20:52:43,39.47,-118.78,46.99,22,20,5.82,few clouds,0.0,0.0
381,Petropavl,KZ,2020-04-02 20:53:46,54.88,69.16,28.44,95,16,9.53,few clouds,0.0,0.0
382,Tefe,BR,2020-04-02 20:53:46,-3.35,-64.71,84.2,83,20,4.7,few clouds,0.0,0.0
383,Adtuyon,PH,2020-04-02 20:53:46,7.81,124.86,65.66,59,0,1.83,clear sky,0.0,0.0
384,Manta,EC,2020-04-02 20:50:25,-0.95,-80.73,82.4,78,40,5.82,scattered clouds,0.0,0.0
385,Yar-Sale,RU,2020-04-02 20:53:47,66.83,70.83,16.14,94,96,13.96,overcast clouds,0.0,0.0
386,Ust-Ilimsk,RU,2020-04-02 20:53:47,58.0,102.66,25.54,95,0,5.68,clear sky,0.0,0.0
387,Muli,MV,2020-04-02 20:53:47,2.92,73.57,83.39,74,30,9.84,scattered clouds,0.0,0.0
388,Port Blair,IN,2020-04-02 20:53:47,11.67,92.75,81.77,69,38,3.8,scattered clouds,0.0,0.0
389,Buchanan,LR,2020-04-02 20:53:48,5.88,-10.05,80.6,94,40,3.49,scattered clouds,0.0,0.0
390,Rehoboth,NA,2020-04-02 20:53:48,-23.32,17.08,68.0,39,9,3.8,clear sky,0.0,0.0
391,Zima,RU,2020-04-02 20:53:48,53.92,102.04,30.15,84,21,5.55,few clouds,0.0,0.0
392,Hamilton,US,2020-04-02 20:50:38,39.18,-84.53,62.01,38,1,3.36,clear sky,0.0,0.0
393,Ajdabiya,LY,2020-04-02 20:50:29,30.76,20.23,72.59,27,64,16.78,broken clouds,0.0,0.0
394,Pizhanka,RU,2020-04-02 20:53:48,57.46,48.54,31.69,93,75,11.25,broken clouds,0.0,0.0
395,Huron,US,2020-04-02 20:53:48,41.15,-82.55,60.01,30,1,17.22,clear sky,0.0,0.0
396,Santa Rosalia,MX,2020-04-02 20:53:49,27.32,-112.28,76.93,31,9,1.7,clear sky,0.0,0.0
397,Bonfim,BR,2020-04-02 20:53:49,3.08,-59.95,94.01,40,94,11.61,overcast clouds,0.0,0.0
398,Pemba,MZ,2020-04-02 20:53:49,-12.97,40.52,80.6,78,75,11.41,broken clouds,0.0,0.0
399,Kidal,ML,2020-04-02 20:53:49,18.44,1.41,84.33,9,0,9.42,clear sky,0.0,0.0
400,Lucapa,AO,2020-04-02 20:53:50,-8.42,20.74,68.18,74,100,3.56,light rain,0.014566929133858268,0.0
401,Lubbock,US,2020-04-02 20:53:50,33.6,-101.83,84.0,14,20,11.41,few clouds,0.0,0.0
402,Saint-Augustin,CA,2020-04-02 20:53:50,51.23,-58.65,37.33,95,100,12.41,overcast clouds,0.0,0.0
403,Kingston,JM,2020-04-02 20:50:39,18.0,-76.79,86.0,62,20,10.29,few clouds,0.0,0.0
404,Malanje,AO,2020-04-02 20:53:50,-9.54,16.34,67.28,67,100,1.72,light rain,0.007874015748031498,0.0
405,Iracoubo,GF,2020-04-02 20:53:50,5.48,-53.2,76.15,88,100,8.32,moderate rain,0.1846456692913386,0.0
406,San Lazaro,BZ,2020-04-02 20:53:50,18.04,-88.66,87.8,66,40,20.8,scattered clouds,0.0,0.0
407,College,US,2020-04-02 20:53:51,64.86,-147.8,30.0,53,90,2.51,overcast clouds,0.0,0.0
408,Sri Aman,MY,2020-04-02 20:53:51,1.24,111.46,75.2,100,76,0.96,broken clouds,0.0,0.0
409,Maumere,ID,2020-04-02 20:53:51,-8.62,122.21,80.73,73,98,3.47,overcast clouds,0.0,0.0
410,Asau,RO,2020-04-02 20:53:51,46.43,26.4,41.0,44,8,12.75,clear sky,0.0,0.0
411,Singarayakonda,IN,2020-04-02 20:53:51,15.25,80.03,76.87,85,77,8.01,broken clouds,0.0,0.0
412,Riviera Beach,US,2020-04-02 20:53:51,26.78,-80.06,82.0,41,40,8.05,scattered clouds,0.0,0.0
413,Ostrovnoy,RU,2020-04-02 20:53:51,68.05,39.51,14.63,94,50,7.47,scattered clouds,0.0,0.0
414,Chifeng,CN,2020-04-02 20:53:51,42.27,118.96,41.4,46,0,6.62,clear sky,0.0,0.0
415,Ballina,AU,2020-04-02 20:53:51,-28.87,153.57,68.0,94,17,7.47,few clouds,0.0,0.0
416,Kutum,SD,2020-04-02 20:53:52,14.2,24.67,76.64,13,50,8.7,scattered clouds,0.0,0.0
417,Rio Rancho,US,2020-04-02 20:48:53,35.23,-106.66,75.99,13,20,20.8,few clouds,0.0,0.0
418,Crestview,US,2020-04-02 20:53:27,30.76,-86.57,78.8,25,1,4.7,clear sky,0.0,0.0
419,Namibe,AO,2020-04-02 20:53:52,-15.2,12.15,74.86,72,87,4.85,overcast clouds,0.0,0.0
420,Alpena,US,2020-04-02 20:53:52,45.06,-83.43,60.01,16,1,12.75,clear sky,0.0,0.0
421,Hervey Bay,AU,2020-04-02 20:53:52,-25.3,152.85,68.0,100,11,6.93,few clouds,0.0,0.0
422,Havre-Saint-Pierre,CA,2020-04-02 20:53:52,50.23,-63.6,39.2,80,90,4.7,overcast clouds,0.0,0.0
423,Mumford,GH,2020-04-02 20:53:53,5.26,-0.76,80.56,84,100,7.02,overcast clouds,0.0,0.0
424,Alyangula,AU,2020-04-02 20:53:53,-13.85,136.42,73.4,100,30,4.7,scattered clouds,0.0,0.0
425,Manaira,BR,2020-04-02 20:53:53,-7.71,-38.15,71.65,74,94,4.81,moderate rain,0.13897637795275591,0.0
426,Niquero,CU,2020-04-02 20:53:53,20.04,-77.58,83.97,54,36,10.38,scattered clouds,0.0,0.0
427,Margate,GB,2020-04-02 20:52:36,51.38,1.39,52.0,61,64,6.93,light rain,0.006299212598425198,0.0
428,Likasi,CD,2020-04-02 20:53:53,-10.98,26.73,62.15,58,66,5.48,broken clouds,0.0,0.0
429,Savannakhet,LA,2020-04-02 20:53:53,16.57,104.75,79.41,75,42,4.99,light rain,0.007480314960629922,0.0
430,Zhanaozen,KZ,2020-04-02 20:53:54,43.3,52.8,52.36,85,100,7.09,light rain,0.014173228346456693,0.0
431,Xingyi,CN,2020-04-02 20:53:54,24.19,102.82,53.62,43,5,2.01,clear sky,0.0,0.0
432,Mao,ES,2020-04-02 20:53:54,39.89,4.27,53.6,87,97,6.93,light intensity shower rain,0.0,0.0
433,Half Moon Bay,US,2020-04-02 20:52:25,37.46,-122.43,68.0,27,5,9.17,clear sky,0.0,0.0
434,Naze,JP,2020-04-02 20:53:54,28.37,129.48,57.2,93,26,1.12,scattered clouds,0.0,0.0
435,Nome,US,2020-04-02 20:49:37,64.5,-165.41,24.8,85,90,13.87,light snow,0.0,0.0
436,Port Pirie,AU,2020-04-02 20:53:54,-33.18,138.02,59.0,87,69,6.93,broken clouds,0.0,0.0
437,Mwinilunga,ZM,2020-04-02 20:53:54,-11.74,24.43,63.43,64,93,4.21,overcast clouds,0.0,0.0
438,Anaco,VE,2020-04-02 20:53:55,9.44,-64.47,90.68,37,98,6.98,overcast clouds,0.0,0.0
439,Inyonga,TZ,2020-04-02 20:53:55,-6.72,32.07,66.88,68,100,2.51,moderate rain,0.14803149606299212,0.0
440,Bambous Virieux,MU,2020-04-02 20:53:55,-20.34,57.76,77.0,94,40,5.1,scattered clouds,0.0,0.0
441,Thompson,CA,2020-04-02 20:53:55,55.74,-97.86,30.2,86,90,3.36,light snow,0.0,0.0
442,Kulhudhuffushi,MV,2020-04-02 20:53:55,6.62,73.07,83.35,62,1,5.64,clear sky,0.0,0.0
443,Xinyu,CN,2020-04-02 20:53:55,27.8,114.93,52.97,90,95,1.45,light rain,0.013385826771653545,0.0
444,Kaura Namoda,NG,2020-04-02 20:53:55,12.59,6.58,89.19,21,99,2.15,overcast clouds,0.0,0.0
445,Dzilam Gonzalez,MX,2020-04-02 20:53:55,21.28,-88.93,88.72,50,11,16.2,few clouds,0.0,0.0
446,Toba Tek Singh,PK,2020-04-02 20:53:55,30.97,72.48,64.54,39,33,6.38,scattered clouds,0.0,0.0
447,Staszow,PL,2020-04-02 20:53:56,50.56,21.17,44.01,25,3,3.0,clear sky,0.0,0.0
448,Ponta Do Sol,PT,2020-04-02 20:53:56,32.67,-17.1,62.6,72,75,10.29,broken clouds,0.0,0.0
449,San Miguel,SV,2020-04-02 20:53:56,13.48,-88.18,96.06,38,37,8.19,scattered clouds,0.0,0.0
450,Shiyan,CN,2020-04-02 20:53:56,32.65,110.78,50.94,76,97,1.74,overcast clouds,0.0,0.0
451,Matagami,CA,2020-04-02 20:53:56,49.75,-77.63,41.0,60,90,9.17,overcast clouds,0.0,0.0
452,Rocha,UY,2020-04-02 20:49:26,-34.48,-54.33,64.24,67,82,30.15,light rain,0.005511811023622048,0.0
453,Berlevag,NO,2020-04-02 20:53:56,70.86,29.09,15.8,92,70,8.05,broken clouds,0.0,0.0
454,La Tuque,CA,2020-04-02 20:52:35,47.43,-72.78,36.66,89,100,8.01,moderate rain,0.16811023622047244,0.0
455,Yen Bai,VN,2020-04-02 20:53:57,21.7,104.87,71.46,86,96,0.78,light rain,0.004330708661417323,0.0
456,Dembi Dolo,ET,2020-04-02 20:53:57,8.53,34.8,68.36,31,89,2.08,overcast clouds,0.0,0.0
457,Tchibanga,GA,2020-04-02 20:53:57,-2.85,11.03,74.28,91,99,2.06,overcast clouds,0.0,0.0
458,San Angelo,US,2020-04-02 20:53:57,31.46,-100.44,87.01,45,1,11.41,clear sky,0.0,0.0
459,Lujan,AR,2020-04-02 20:53:57,-34.57,-59.1,71.6,40,1,13.87,clear sky,0.0,0.0
460,Yarega,RU,2020-04-02 20:53:57,63.44,53.58,23.36,97,12,6.8,few clouds,0.0,0.0
461,Srednekolymsk,RU,2020-04-02 20:53:58,67.45,153.68,0.75,92,86,3.04,overcast clouds,0.0,0.0
462,Borogontsy,RU,2020-04-02 20:53:58,62.67,131.17,-4.68,90,96,4.52,overcast clouds,0.0,0.0
463,Wenling,CN,2020-04-02 20:53:58,28.37,121.36,55.0,78,100,7.09,overcast clouds,0.0,0.0
464,California City,US,2020-04-02 20:52:48,35.13,-117.99,66.2,25,1,25.28,clear sky,0.0,0.0
465,Beringovskiy,RU,2020-04-02 20:53:58,63.05,179.32,24.22,97,100,17.6,snow,0.0,0.09724409448818899
466,Elverum,NO,2020-04-02 20:53:58,60.88,11.56,33.01,69,64,5.99,broken clouds,0.0,0.0
467,Celestun,MX,2020-04-02 20:53:59,20.87,-90.4,82.54,70,2,13.51,clear sky,0.0,0.0
468,Kangaatsiaq,GL,2020-04-02 20:53:59,68.31,-53.46,11.55,93,97,1.88,light snow,0.0,0.007874015748031498
469,Tigil,RU,2020-04-02 20:53:59,57.8,158.67,11.75,92,33,4.29,scattered clouds,0.0,0.0
470,Walvis Bay,NA,2020-04-02 20:53:59,-22.96,14.51,59.0,94,0,1.99,clear sky,0.0,0.0
471,Manaure,CO,2020-04-02 20:53:59,11.78,-72.44,84.2,70,40,13.87,scattered clouds,0.0,0.0
472,Othaya,KE,2020-04-02 20:53:59,-0.57,36.96,61.0,85,93,11.99,light rain,0.017716535433070866,0.0
473,Coquimbo,CL,2020-04-02 20:54:00,-29.95,-71.34,66.2,68,40,11.41,scattered clouds,0.0,0.0
474,Bay City,US,2020-04-02 20:54:00,43.59,-83.89,61.0,24,1,8.05,clear sky,0.0,0.0
475,Taicheng,CN,2020-04-02 20:54:00,38.73,113.23,38.05,36,0,2.68,clear sky,0.0,0.0
476,Grindavik,IS,2020-04-02 20:54:00,63.84,-22.43,30.2,58,20,16.11,few clouds,0.0,0.0
477,Rawah,IQ,2020-04-02 20:54:00,34.48,41.91,65.23,49,51,6.96,broken clouds,0.0,0.0
478,Darhan,MN,2020-04-02 20:54:00,49.49,105.92,39.63,46,0,0.54,clear sky,0.0,0.0
479,Lensk,RU,2020-04-02 20:54:00,60.73,114.93,5.97,90,0,3.31,clear sky,0.0,0.0
480,Rumonge,BI,2020-04-02 20:54:00,-3.97,29.44,71.44,60,99,3.76,light rain,0.012204724409448819,0.0
481,Itupiranga,BR,2020-04-02 20:54:01,-5.13,-49.33,91.4,63,40,4.7,scattered clouds,0.0,0.0
482,Thinadhoo,MV,2020-04-02 20:54:01,0.53,72.93,83.73,73,66,6.31,broken clouds,0.0,0.0
483,Abha,SA,2020-04-02 20:54:01,18.22,42.51,66.2,72,1,4.09,clear sky,0.0,0.0
484,Spilimbergo,IT,2020-04-02 20:54:01,46.11,12.9,45.0,75,0,5.82,clear sky,0.0,0.0
485,Ambon,ID,2020-04-02 20:54:01,-3.7,128.18,81.63,77,40,8.37,scattered clouds,0.0,0.0
486,Horta,PT,2020-04-02 20:54:02,38.53,-28.63,61.47,87,92,14.32,light rain,0.021259842519685043,0.0
487,Mogadishu,SO,2020-04-02 20:52:37,2.04,45.34,82.72,76,9,13.15,clear sky,0.0,0.0
488,Nabire,ID,2020-04-02 20:49:06,-3.37,135.48,74.84,90,100,3.22,light rain,0.09370078740157481,0.0
489,Nalvo,PH,2020-04-02 20:54:02,16.81,120.51,73.06,68,2,3.38,clear sky,0.0,0.0
490,Najran,SA,2020-04-02 20:54:02,17.49,44.13,77.0,53,40,4.7,scattered clouds,0.0,0.0
491,Raudeberg,NO,2020-04-02 20:54:02,61.99,5.14,37.0,80,75,17.22,broken clouds,0.0,0.0
492,Potchefstroom,ZA,2020-04-02 20:54:02,-26.72,27.1,56.55,53,63,3.15,broken clouds,0.0,0.0
493,Rovenki,UA,2020-04-02 20:54:03,48.08,39.38,35.64,70,1,5.64,clear sky,0.0,0.0
494,Balkanabat,TM,2020-04-02 20:54:03,39.51,54.37,61.74,55,75,12.39,broken clouds,0.0,0.0
495,Uray,RU,2020-04-02 20:54:03,60.12,64.78,27.05,95,21,10.65,few clouds,0.0,0.0
496,Mabaruma,GY,2020-04-02 20:54:03,8.2,-59.78,83.46,65,100,9.1,light rain,0.005118110236220473,0.0
497,Altamira,BR,2020-04-02 20:54:04,-3.2,-52.21,86.0,79,40,5.82,scattered clouds,0.0,0.0
498,Hambantota,LK,2020-04-02 20:54:04,6.12,81.12,77.22,80,2,8.72,clear sky,0.0,0.0
499,Moerai,PF,2020-04-02 20:54:04,-22.43,-151.33,80.29,79,98,13.65,overcast clouds,0.0,0.0
500,Nyurba,RU,2020-04-02 20:54:04,63.28,118.33,2.62,92,36,3.44,scattered clouds,0.0,0.0
501,Freeport,US,2020-04-02 20:53:32,40.66,-73.58,59.0,35,75,23.04,broken clouds,0.0,0.0
502,Vostok,RU,2020-04-02 20:49:09,46.49,135.88,20.3,80,0,10.33,clear sky,0.0,0.0
503,Cururupu,BR,2020-04-02 20:54:04,-1.83,-44.87,80.38,88,100,5.95,light rain,0.004330708661417323,0.0
504,Koumac,NC,2020-04-02 20:54:04,-20.57,164.28,78.69,81,99,9.98,light rain,0.006692913385826772,0.0
505,Savannah Bight,HN,2020-04-02 20:54:04,16.45,-85.85,80.65,77,0,15.48,clear sky,0.0,0.0
506,Puteyets,RU,2020-04-02 20:54:05,65.17,57.09,18.68,97,88,2.68,overcast clouds,0.0,0.0
507,Merauke,ID,2020-04-02 20:54:05,-8.47,140.33,76.89,90,99,5.28,overcast clouds,0.0,0.0
508,Bar Harbor,US,2020-04-02 20:49:23,44.39,-68.2,46.99,93,90,16.11,light rain,0.0,0.0
509,Jalu,LY,2020-04-02 20:54:05,29.03,21.55,72.64,21,0,10.6,clear sky,0.0,0.0
510,Imperial,US,2020-04-02 20:54:05,33.03,-115.42,82.0,26,1,6.93,clear sky,0.0,0.0
511,Udine,IT,2020-04-02 20:54:05,46.06,13.24,46.4,75,0,5.82,clear sky,0.0,0.0
512,Port Hedland,AU,2020-04-02 20:54:06,-20.32,118.57,73.4,88,10,10.74,clear sky,0.0,0.0
513,Bocas Del Toro,PA,2020-04-02 20:53:17,9.33,-82.25,71.01,74,86,1.01,light rain,0.008661417322834646,0.0
514,Longyearbyen,SJ,2020-04-02 20:54:06,78.22,15.64,-4.0,70,40,4.7,scattered clouds,0.0,0.0
515,Ust-Nera,RU,2020-04-02 20:54:06,64.57,143.2,7.39,83,100,5.17,overcast clouds,0.0,0.0
516,Majenang,ID,2020-04-02 20:54:06,-7.3,108.76,76.59,85,100,0.58,light rain,0.03543307086614173,0.0
517,Poum,NC,2020-04-02 20:54:06,-20.23,164.02,79.29,84,100,19.3,light rain,0.02598425196850394,0.0
518,Marzuq,YE,2020-04-02 20:54:06,14.4,46.47,74.75,39,1,3.67,clear sky,0.0,0.0
519,Tessalit,ML,2020-04-02 20:54:06,20.2,1.01,79.52,11,0,7.61,clear sky,0.0,0.0
520,Micheweni,TZ,2020-04-02 20:54:07,-4.97,39.83,84.27,75,100,11.9,moderate rain,0.16023622047244096,0.0
521,Raga,SS,2020-04-02 20:54:07,8.46,25.68,85.93,22,70,3.02,broken clouds,0.0,0.0
522,Karratha,AU,2020-04-02 20:54:07,-20.74,116.85,83.03,42,75,12.88,broken clouds,0.0,0.0
523,Tera,NE,2020-04-02 20:54:07,14.01,0.75,86.54,14,85,2.19,overcast clouds,0.0,0.0
524,Waitati,NZ,2020-04-02 20:50:05,-45.75,170.57,55.99,85,2,1.99,clear sky,0.0,0.0
525,Byron Bay,AU,2020-04-02 20:54:08,-28.65,153.62,71.01,94,35,6.49,scattered clouds,0.0,0.0
526,Evensk,RU,2020-04-02 20:54:08,61.95,159.23,7.77,85,10,3.8,clear sky,0.0,0.0
527,Araouane,ML,2020-04-02 20:54:08,18.9,-3.53,80.46,12,0,3.56,clear sky,0.0,0.0
528,Kysyl-Syr,RU,2020-04-02 20:54:08,63.9,122.76,2.39,92,88,5.68,overcast clouds,0.0,0.0
529,Basco,PH,2020-04-02 20:54:08,20.45,121.97,76.62,85,98,18.99,light rain,0.012598425196850395,0.0
530,Mackay,AU,2020-04-02 20:54:08,-21.15,149.2,69.8,94,75,5.82,broken clouds,0.0,0.0
531,Kangundo,KE,2020-04-02 20:54:08,-1.3,37.35,66.2,93,40,4.7,scattered clouds,0.0,0.0
532,Kijang,KR,2020-04-02 20:54:08,35.24,129.21,44.6,70,83,1.12,broken clouds,0.0,0.0
533,Tamiahua,MX,2020-04-02 20:54:09,21.27,-97.45,82.42,75,28,14.97,scattered clouds,0.0,0.0
534,Doha,QA,2020-04-02 20:54:09,25.29,51.53,79.0,69,39,6.93,scattered clouds,0.0,0.0
535,Ust-Kalmanka,RU,2020-04-02 20:54:09,52.12,83.31,44.91,62,99,13.04,overcast clouds,0.0,0.0
536,Northeim,DE,2020-04-02 20:54:09,51.7,10.0,46.0,60,75,10.29,broken clouds,0.0,0.0
537,Atar,MR,2020-04-02 20:54:10,20.52,-13.05,85.5,12,98,8.14,overcast clouds,0.0,0.0
538,Hami,CN,2020-04-02 20:54:10,42.8,93.45,45.72,27,0,7.61,clear sky,0.0,0.0
539,Tanout,NE,2020-04-02 20:54:10,14.97,8.89,88.65,15,24,3.67,few clouds,0.0,0.0
540,Dawlatabad,AF,2020-04-02 20:54:10,36.41,64.91,60.04,44,18,6.78,few clouds,0.0,0.0
541,Amapa,BR,2020-04-02 20:54:10,1.0,-52.0,71.92,94,100,1.7,light rain,0.046850393700787404,0.0
542,Balikpapan,ID,2020-04-02 20:54:10,-1.27,116.83,76.96,89,48,8.1,light rain,0.06377952755905512,0.0
543,Vao,NC,2020-04-02 20:54:11,-22.67,167.48,75.67,82,100,22.93,light rain,0.005118110236220473,0.0
544,Novotitarovskaya,RU,2020-04-02 20:54:11,45.24,38.98,43.0,74,75,6.71,broken clouds,0.0,0.0
545,Uruzgan,AF,2020-04-02 20:54:11,32.83,66.0,49.32,30,100,1.92,overcast clouds,0.0,0.0
546,Anadyr,RU,2020-04-02 20:54:11,64.75,177.48,1.4,77,20,11.18,mist,0.0,0.0
547,Vysokopillya,UA,2020-04-02 20:54:11,47.49,33.53,35.6,34,0,8.95,clear sky,0.0,0.0
548,Cap Malheureux,MU,2020-04-02 20:54:12,-19.98,57.61,77.0,94,40,4.36,scattered clouds,0.0,0.0
549,Fukue,JP,2020-04-02 20:54:12,32.69,128.84,57.15,54,100,9.19,overcast clouds,0.0,0.0
550,Wajid,SO,2020-04-02 20:54:12,3.81,43.25,83.39,50,27,14.43,scattered clouds,0.0,0.0
551,Kalispell,US,2020-04-02 20:54:12,48.2,-114.31,30.0,63,90,4.7,light snow,0.0,0.0
552,Moron,AR,2020-04-02 20:51:17,-34.65,-58.62,71.01,49,0,10.29,clear sky,0.0,0.0
553,Shelui,TZ,2020-04-02 20:54:12,-4.37,34.2,67.87,63,99,3.78,light rain,0.01141732283464567,0.0
554,Luanda,AO,2020-04-02 20:49:29,-8.84,13.23,82.4,78,75,4.7,broken clouds,0.0,0.0
555,Manzanillo,CU,2020-04-02 20:54:13,20.34,-77.12,84.47,55,22,10.65,few clouds,0.0,0.0
556,Kruisfontein,ZA,2020-04-02 20:54:13,-34.0,24.73,62.29,81,0,11.95,clear sky,0.0,0.0
557,Muros,ES,2020-04-02 20:54:13,42.78,-9.06,57.99,87,40,5.82,scattered clouds,0.0,0.0
558,Strezhevoy,RU,2020-04-02 20:54:14,60.73,77.59,33.8,86,75,13.42,broken clouds,0.0,0.0
559,Polunochnoye,RU,2020-04-02 20:54:14,60.87,60.42,22.73,95,7,6.24,clear sky,0.0,0.0
560,Los Llanos De Aridane,ES,2020-04-02 20:54:14,28.66,-17.92,66.2,72,75,6.93,broken clouds,0.0,0.0
561,Dengzhou,CN,2020-04-02 20:54:14,37.81,120.75,43.36,83,0,11.7,clear sky,0.0,0.0
562,Tari,NG,2020-04-02 20:54:14,12.41,4.49,90.55,21,99,4.09,overcast clouds,0.0,0.0
563,Plouzane,FR,2020-04-02 20:54:14,48.38,-4.62,48.2,87,75,5.82,broken clouds,0.0,0.0
564,Nishihara,JP,2020-04-02 20:54:15,26.18,127.76,66.2,72,75,4.7,broken clouds,0.0,0.0
565,Myaundzha,RU,2020-04-02 20:54:15,63.05,147.19,1.15,82,98,2.01,overcast clouds,0.0,0.0
566,El Tocuyo,VE,2020-04-02 20:54:15,9.79,-69.79,87.8,45,96,19.46,light rain,0.007874015748031498,0.0
567,Egvekinot,RU,2020-04-02 20:54:15,66.32,-179.17,9.18,86,60,4.83,broken clouds,0.0,0.0
568,Kununurra,AU,2020-04-02 20:54:15,-15.77,128.73,80.6,78,90,4.7,overcast clouds,0.0,0.0
569,Mundargi,IN,2020-04-02 20:54:16,15.22,75.9,78.49,52,76,3.65,broken clouds,0.0,0.0
570,Saurimo,AO,2020-04-02 20:54:07,-9.66,20.39,67.95,69,100,1.57,light rain,0.07007874015748032,0.0
571,Richards Bay,ZA,2020-04-02 20:54:16,-28.78,32.04,67.24,67,50,4.52,scattered clouds,0.0,0.0
572,Phuket,TH,2020-04-02 20:52:18,8.0,98.25,80.6,88,20,2.24,few clouds,0.0,0.0
573,Esil,KZ,2020-04-02 20:54:16,51.96,66.4,29.91,91,49,4.83,scattered clouds,0.0,0.0
574,Samarai,PG,2020-04-02 20:54:16,-10.62,150.67,79.38,81,44,7.76,light rain,0.005511811023622048,0.0
575,Comillas,PH,2020-04-02 20:54:16,15.4,120.7,75.2,78,20,2.24,few clouds,0.0,0.0
576,Sironj,IN,2020-04-02 20:54:17,24.1,77.7,73.96,17,0,7.72,clear sky,0.0,0.0
577,Grand Gaube,MU,2020-04-02 20:54:17,-20.01,57.66,77.0,94,40,4.41,scattered clouds,0.0,0.0
578,Ruidoso,US,2020-04-02 20:54:17,33.33,-105.67,78.01,15,1,12.75,clear sky,0.0,0.0
579,Douentza,ML,2020-04-02 20:54:17,15.0,-2.95,85.39,12,0,5.14,clear sky,0.0,0.0
580,Sur,OM,2020-04-02 20:54:17,22.57,59.53,78.94,68,0,7.99,clear sky,0.0,0.0
581,Sumenep,ID,2020-04-02 20:54:17,-7.02,113.87,79.68,77,64,2.59,broken clouds,0.0,0.0
582,Havoysund,NO,2020-04-02 20:54:18,71.0,24.66,17.6,72,27,10.29,scattered clouds,0.0,0.0
583,Limulunga,ZM,2020-04-02 20:54:18,-15.1,23.14,69.6,57,92,5.14,overcast clouds,0.0,0.0
584,Fairbanks,US,2020-04-02 20:52:37,64.84,-147.72,30.99,62,75,2.48,broken clouds,0.0,0.0
585,Vestmanna,FO,2020-04-02 20:54:18,62.16,-7.17,32.0,89,90,14.99,overcast clouds,0.0,0.0
586,Tazmalt,DZ,2020-04-02 20:54:18,36.39,4.4,59.0,77,40,6.93,scattered clouds,0.0,0.0
587,Sangar,RU,2020-04-02 20:54:18,63.92,127.47,-4.61,89,0,4.83,clear sky,0.0,0.0
588,Zhongshan,CN,2020-04-02 20:54:19,21.32,110.58,72.66,91,84,16.6,light rain,0.006299212598425198,0.0
589,Kushiro,JP,2020-04-02 20:54:19,42.98,144.37,35.28,77,32,4.18,scattered clouds,0.0,0.0
590,Mana,GF,2020-04-02 20:54:19,5.66,-53.78,75.54,91,95,7.47,moderate rain,0.25078740157480317,0.0
591,Jiaojiang,CN,2020-04-02 20:54:19,28.68,121.44,55.0,95,100,3.98,overcast clouds,0.0,0.0
