,City,Country,Date,Lat,Lng,Max Temp,Humidity,Cloudiness,Wind Speed,Current Description,Rain inches (last 3 hrs),Snow inches (last 3 hrs)
0,Bluff,NZ,2020-04-02 19:48:29,-46.6,168.33,53.01,95,53,3.0,broken clouds,0.0,0.0
1,Khani,GE,2020-04-02 19:49:46,41.96,42.96,42.8,93,75,6.93,mist,0.0,0.0
2,Alyangula,AU,2020-04-02 19:49:46,-13.85,136.42,73.4,100,30,3.36,scattered clouds,0.0,0.0
3,Saldanha,ZA,2020-04-02 19:49:46,-33.01,17.94,75.2,33,0,8.05,clear sky,0.0,0.0
4,Fukue,JP,2020-04-02 19:49:47,32.69,128.84,57.13,53,100,9.64,overcast clouds,0.0,0.0
5,Torbay,CA,2020-04-02 19:48:28,47.67,-52.73,41.0,100,90,16.11,fog,0.0,0.0
6,Tuktoyaktuk,CA,2020-04-02 19:48:25,69.45,-133.04,3.2,65,5,25.28,clear sky,0.0,0.0
7,Bolobo,CD,2020-04-02 19:49:48,-2.17,16.23,77.72,77,54,4.99,light rain,0.05433070866141732,0.0
8,Aberdeen,GB,2020-04-02 19:49:48,57.14,-2.1,39.99,48,0,12.75,clear sky,0.0,0.0
9,Aitape,PG,2020-04-02 19:48:35,-3.14,142.35,79.07,85,94,14.2,light rain,0.08149606299212599,0.0
10,Ushuaia,AR,2020-04-02 19:48:30,-54.8,-68.3,62.6,45,75,14.99,broken clouds,0.0,0.0
11,Cidreira,BR,2020-04-02 19:49:20,-30.18,-50.21,73.31,63,33,20.6,light rain,0.01141732283464567,0.0
12,Mataura,NZ,2020-04-02 19:48:26,-46.19,168.86,53.01,95,49,3.0,scattered clouds,0.0,0.0
13,Kapaa,US,2020-04-02 19:48:44,22.08,-159.32,78.8,69,40,5.82,scattered clouds,0.0,0.0
14,Semme,FR,2020-04-02 19:49:49,46.2,1.5,46.4,49,0,8.05,clear sky,0.0,0.0
15,Esperance,AU,2020-04-02 19:48:31,-33.87,121.9,57.2,71,90,13.87,overcast clouds,0.0,0.0
16,South Lake Tahoe,US,2020-04-02 19:49:50,38.93,-119.98,50.0,37,1,5.82,clear sky,0.0,0.0
17,Rikitea,PF,2020-04-02 19:48:20,-23.12,-134.97,77.05,73,85,6.73,light rain,0.02716535433070866,0.0
18,Mar Del Plata,AR,2020-04-02 19:46:33,-38.0,-57.56,66.0,55,40,20.8,scattered clouds,0.0,0.0
19,Busselton,AU,2020-04-02 19:47:48,-33.65,115.33,55.0,51,89,10.8,overcast clouds,0.0,0.0
20,Deputatskiy,RU,2020-04-02 19:48:22,69.3,139.9,-14.28,81,10,3.87,clear sky,0.0,0.0
21,Usinsk,RU,2020-04-02 19:49:51,65.99,57.53,6.62,90,56,2.91,broken clouds,0.0,0.0
22,Waingapu,ID,2020-04-02 19:49:07,-9.66,120.26,78.42,76,68,5.35,broken clouds,0.0,0.0
23,Cape Town,ZA,2020-04-02 19:46:53,-33.93,18.42,66.99,72,0,5.82,clear sky,0.0,0.0
24,Kavieng,PG,2020-04-02 19:48:56,-2.57,150.8,82.83,75,15,5.41,light rain,0.012598425196850395,0.0
25,Qaanaaq,GL,2020-04-02 19:48:17,77.48,-69.36,-0.89,83,96,5.41,overcast clouds,0.0,0.0
26,Nikolskoye,RU,2020-04-02 19:48:34,59.7,30.79,39.99,86,40,6.71,scattered clouds,0.0,0.0
27,Jamestown,US,2020-04-02 19:46:32,42.1,-79.24,51.8,45,1,11.41,clear sky,0.0,0.0
28,Saint-Marc,HT,2020-04-02 19:49:53,19.11,-72.69,82.08,60,42,7.52,light rain,0.012598425196850395,0.0
29,Groningen,NL,2020-04-02 19:49:53,53.25,6.75,46.99,81,75,13.87,broken clouds,0.0,0.0
30,Puerto Escondido,MX,2020-04-02 19:49:53,15.85,-97.07,82.4,74,20,11.41,few clouds,0.0,0.0
31,Barillas,GT,2020-04-02 19:49:54,15.8,-91.32,74.88,40,52,3.2,moderate rain,0.11968503937007875,0.0
32,Bambous Virieux,MU,2020-04-02 19:49:07,-20.34,57.76,77.0,94,40,3.36,scattered clouds,0.0,0.0
33,Byron Bay,AU,2020-04-02 19:47:45,-28.65,153.62,70.0,94,35,4.7,scattered clouds,0.0,0.0
34,Ancud,CL,2020-04-02 19:48:49,-41.87,-73.82,64.4,55,1,6.93,clear sky,0.0,0.0
35,Illela,NG,2020-04-02 19:49:54,13.73,5.3,91.02,16,98,4.92,overcast clouds,0.0,0.0
36,Hermanus,ZA,2020-04-02 19:48:22,-34.42,19.23,66.99,69,5,5.99,clear sky,0.0,0.0
37,Chakwal,PK,2020-04-02 19:49:55,32.93,72.86,55.4,87,0,6.93,clear sky,0.0,0.0
38,Longyearbyen,SJ,2020-04-02 19:49:30,78.22,15.64,-5.8,76,40,3.36,light snow,0.0,0.0
39,Nuuk,GL,2020-04-02 19:49:56,64.18,-51.72,15.8,56,5,19.46,clear sky,0.0,0.0
40,Barrow,US,2020-04-02 19:48:22,71.29,-156.79,10.4,85,20,9.17,few clouds,0.0,0.0
41,Leningradskiy,RU,2020-04-02 19:49:56,69.38,178.42,4.77,86,4,3.24,clear sky,0.0,0.0
42,Chuy,UY,2020-04-02 19:48:31,-33.7,-53.46,65.12,63,79,25.59,broken clouds,0.0,0.0
43,Bengkulu,ID,2020-04-02 19:48:43,-3.8,102.27,78.21,79,96,5.03,light rain,0.03700787401574803,0.0
44,Santa Cruz,BO,2020-04-02 19:47:04,-17.8,-63.17,93.2,55,75,12.75,broken clouds,0.0,0.0
45,Kinango,KE,2020-04-02 19:49:57,-4.14,39.32,77.4,82,98,4.74,moderate rain,0.14881889763779527,0.0
46,Hobart,AU,2020-04-02 19:48:10,-42.88,147.33,60.8,59,20,10.29,few clouds,0.0,0.0
47,Souillac,MU,2020-04-02 19:48:44,-20.52,57.52,77.0,94,40,3.36,scattered clouds,0.0,0.0
48,Punta Arenas,CL,2020-04-02 19:45:17,-53.15,-70.92,62.6,51,75,12.75,light intensity shower rain,0.0,0.0
49,Ostrovnoy,RU,2020-04-02 19:49:58,68.05,39.51,14.63,94,50,7.47,scattered clouds,0.0,0.0
50,Mercedes,AR,2020-04-02 19:49:58,-34.65,-59.43,73.0,52,0,1.99,clear sky,0.0,0.0
51,Sosnovo-Ozerskoye,RU,2020-04-02 19:49:59,52.52,111.54,26.37,75,0,2.53,clear sky,0.0,0.0
52,Iskateley,RU,2020-04-02 19:49:59,67.68,53.15,4.48,95,6,1.45,clear sky,0.0,0.0
53,Severo-Kurilsk,RU,2020-04-02 19:49:04,50.68,156.12,32.09,95,100,42.28,snow,0.0,0.11850393700787401
54,Puerto Ayora,EC,2020-04-02 19:49:59,-0.74,-90.35,84.2,70,20,11.41,few clouds,0.0,0.0
55,Dunmore Town,BS,2020-04-02 19:49:59,25.5,-76.65,71.98,57,27,7.92,scattered clouds,0.0,0.0
56,Port Alfred,ZA,2020-04-02 19:48:17,-33.59,26.89,66.99,80,18,4.0,few clouds,0.0,0.0
57,Albany,US,2020-04-02 19:46:11,42.6,-73.97,55.4,35,90,21.92,light rain,0.0,0.0
58,Kristinehamn,SE,2020-04-02 19:50:00,59.31,14.11,37.99,85,93,13.87,light snow,0.0,0.014173228346456693
59,Mahebourg,MU,2020-04-02 19:49:07,-20.41,57.7,77.0,94,40,3.36,scattered clouds,0.0,0.0
60,Airai,TL,2020-04-02 19:50:01,-8.93,125.41,61.0,68,38,1.32,scattered clouds,0.0,0.0
61,Ribeira Brava,PT,2020-04-02 19:50:01,32.65,-17.07,62.6,72,75,10.29,broken clouds,0.0,0.0
62,Novo Aripuana,BR,2020-04-02 19:50:01,-5.12,-60.38,80.89,92,100,1.66,moderate rain,0.14881889763779527,0.0
63,Saskylakh,RU,2020-04-02 19:48:20,71.92,114.08,-12.3,85,0,9.98,clear sky,0.0,0.0
64,Mackay,AU,2020-04-02 19:50:02,-21.15,149.2,69.01,94,26,3.36,scattered clouds,0.0,0.0
65,Abu Dhabi,AE,2020-04-02 19:45:05,24.47,54.37,77.0,57,0,6.93,clear sky,0.0,0.0
66,Port Elizabeth,ZA,2020-04-02 19:49:04,-33.92,25.57,66.2,82,5,14.99,clear sky,0.0,0.0
67,Beloha,MG,2020-04-02 19:50:02,-25.17,45.05,67.48,74,4,14.5,clear sky,0.0,0.0
68,Kormista,GR,2020-04-02 19:50:03,40.98,24.05,48.0,79,11,5.01,few clouds,0.0,0.0
69,Atuona,PF,2020-04-02 19:48:33,-9.8,-139.03,82.71,77,42,16.31,light rain,0.05236220472440945,0.0
70,Hilo,US,2020-04-02 19:44:03,19.73,-155.09,78.8,61,1,3.36,clear sky,0.0,0.0
71,Seymchan,RU,2020-04-02 19:50:04,62.88,152.43,4.28,88,3,5.7,clear sky,0.0,0.0
72,Guabito,PA,2020-04-02 19:50:04,9.5,-82.62,84.99,70,75,10.29,broken clouds,0.0,0.0
73,East London,ZA,2020-04-02 19:48:16,-33.02,27.91,66.87,75,27,17.87,light rain,0.006299212598425198,0.0
74,Lebu,CL,2020-04-02 19:48:42,-37.62,-73.65,62.26,61,0,22.21,clear sky,0.0,0.0
75,Roald,NO,2020-04-02 19:50:04,62.58,6.13,39.0,80,75,23.04,broken clouds,0.0,0.0
76,Khatanga,RU,2020-04-02 19:48:44,71.97,102.5,15.87,91,100,18.07,overcast clouds,0.0,0.0
77,Butaritari,KI,2020-04-02 19:48:28,3.07,172.79,83.14,76,29,8.93,scattered clouds,0.0,0.0
78,Victoria,HK,2020-04-02 19:48:33,22.29,114.16,71.01,82,40,21.92,scattered clouds,0.0,0.0
79,Clyde River,CA,2020-04-02 19:46:53,70.47,-68.59,-4.0,76,5,2.24,clear sky,0.0,0.0
80,New Norfolk,AU,2020-04-02 19:48:37,-42.78,147.06,60.8,59,20,10.29,few clouds,0.0,0.0
81,Oia,PT,2020-04-02 19:50:06,40.54,-8.54,60.01,87,0,2.24,clear sky,0.0,0.0
82,Angoche,MZ,2020-04-02 19:49:25,-16.23,39.91,75.43,87,15,12.3,light rain,0.007480314960629922,0.0
83,Tucumcari,US,2020-04-02 19:50:07,35.17,-103.72,80.6,13,1,23.04,clear sky,0.0,0.0
84,Snezhnogorsk,RU,2020-04-02 19:50:07,69.19,33.25,14.0,85,40,6.71,scattered clouds,0.0,0.0
85,Chatra,IN,2020-04-02 19:50:07,24.22,84.87,73.53,21,0,4.63,clear sky,0.0,0.0
86,Plettenberg Bay,ZA,2020-04-02 19:50:07,-34.05,23.37,66.49,69,0,4.61,clear sky,0.0,0.0
87,Nouadhibou,MR,2020-04-02 19:48:26,20.93,-17.03,66.2,82,22,19.46,few clouds,0.0,0.0
88,Upernavik,GL,2020-04-02 19:48:47,72.79,-56.15,-2.43,89,86,10.42,overcast clouds,0.0,0.0
89,Vostok,RU,2020-04-02 19:47:53,46.49,135.88,20.3,80,0,10.33,clear sky,0.0,0.0
90,Acapulco,MX,2020-04-02 19:50:08,16.86,-99.89,87.8,66,5,8.05,clear sky,0.0,0.0
91,Bongandanga,CD,2020-04-02 19:50:09,1.5,21.05,75.85,77,58,2.13,light rain,0.02519685039370079,0.0
92,Naze,JP,2020-04-02 19:50:09,28.37,129.48,62.6,77,75,4.7,broken clouds,0.0,0.0
93,Ribeira Grande,PT,2020-04-02 19:46:16,38.52,-28.7,61.14,87,100,8.95,light rain,0.03228346456692913,0.0
94,Viedma,AR,2020-04-02 19:50:10,-40.81,-63.0,65.55,41,0,7.81,clear sky,0.0,0.0
95,Belaya Gora,RU,2020-04-02 19:50:10,68.53,146.42,-8.07,89,82,5.03,broken clouds,0.0,0.0
96,Lesnoy,RU,2020-04-02 19:50:10,57.62,63.08,28.2,94,55,11.07,broken clouds,0.0,0.0
97,Bodden Town,KY,2020-04-02 19:50:10,19.28,-81.25,86.0,62,20,8.05,few clouds,0.0,0.0
98,Mokhsogollokh,RU,2020-04-02 19:50:10,61.47,128.92,-0.06,90,99,5.26,overcast clouds,0.0,0.0
99,Chokurdakh,RU,2020-04-02 19:48:49,70.63,147.92,-10.73,90,92,6.58,overcast clouds,0.0,0.0
100,Dudinka,RU,2020-04-02 19:50:11,69.41,86.18,28.4,92,90,42.5,overcast clouds,0.0,0.0
101,Porto Novo,BJ,2020-04-02 19:50:11,6.5,2.6,84.2,79,20,4.7,few clouds,0.0,0.0
102,Caravelas,BR,2020-04-02 19:50:12,-17.71,-39.25,80.51,80,15,9.26,few clouds,0.0,0.0
103,Yellowknife,CA,2020-04-02 19:44:26,62.46,-114.35,-2.0,64,90,14.99,light snow,0.0,0.0
104,Maceio,BR,2020-04-02 19:49:51,-9.67,-35.74,84.2,74,75,9.17,broken clouds,0.0,0.0
105,Luderitz,NA,2020-04-02 19:49:01,-26.65,15.16,68.0,64,0,2.24,clear sky,0.0,0.0
106,Vardo,NO,2020-04-02 19:50:12,70.37,31.11,15.8,85,100,3.36,overcast clouds,0.0,0.0
107,Rio Gallegos,AR,2020-04-02 19:50:13,-51.62,-69.22,62.6,39,75,12.75,broken clouds,0.0,0.0
108,Georgetown,MY,2020-04-02 19:45:10,5.41,100.34,82.4,94,20,3.15,few clouds,0.0,0.0
109,Narsaq,GL,2020-04-02 19:50:14,60.92,-46.05,26.6,63,40,3.36,scattered clouds,0.0,0.0
110,Thompson,CA,2020-04-02 19:46:40,55.74,-97.86,30.2,92,90,6.93,light snow,0.0,0.0
111,Richards Bay,ZA,2020-04-02 19:50:14,-28.78,32.04,68.2,68,65,4.43,broken clouds,0.0,0.0
112,Port Lincoln,AU,2020-04-02 19:50:14,-34.73,135.87,60.3,76,10,12.84,clear sky,0.0,0.0
113,Iqaluit,CA,2020-04-02 19:48:48,63.75,-68.51,5.0,54,5,6.93,clear sky,0.0,0.0
114,Itoman,JP,2020-04-02 19:49:21,26.12,127.67,68.0,64,75,6.93,broken clouds,0.0,0.0
115,Ilulissat,GL,2020-04-02 19:49:15,69.22,-51.1,1.4,59,20,5.82,few clouds,0.0,0.0
116,Praia Da Vitoria,PT,2020-04-02 19:50:15,38.73,-27.07,60.8,100,90,17.69,light intensity drizzle rain,0.0,0.0
117,Yarmouth,US,2020-04-02 19:50:15,41.71,-70.23,48.2,81,90,17.22,light rain,0.0,0.0
118,Pontianak,ID,2020-04-02 19:49:03,-0.03,109.33,77.88,86,88,3.0,overcast clouds,0.0,0.0
119,Khatassy,RU,2020-04-02 19:50:16,61.9,129.64,1.4,64,95,8.95,overcast clouds,0.0,0.0
120,Haines Junction,CA,2020-04-02 19:49:12,60.75,-137.51,25.77,82,13,1.66,few clouds,0.0,0.0
121,Pangnirtung,CA,2020-04-02 19:50:17,66.15,-65.71,-4.0,64,5,3.36,clear sky,0.0,0.0
122,Bethel,US,2020-04-02 19:48:22,41.37,-73.41,57.2,43,90,18.34,overcast clouds,0.0,0.0
123,Severo-Yeniseyskiy,RU,2020-04-02 19:50:17,60.37,93.04,29.95,83,4,7.52,clear sky,0.0,0.0
124,Rio Cuarto,AR,2020-04-02 19:49:44,-33.13,-64.35,73.4,28,0,10.29,clear sky,0.0,0.0
125,Liberty,US,2020-04-02 19:50:17,31.83,-81.5,71.6,35,1,8.05,clear sky,0.0,0.0
126,Olafsvik,IS,2020-04-02 19:48:49,64.89,-23.71,29.1,85,19,16.46,few clouds,0.0,0.0
127,Galle,LK,2020-04-02 19:49:45,6.04,80.22,76.35,83,0,10.63,clear sky,0.0,0.0
128,Tomatlan,MX,2020-04-02 19:50:18,19.93,-105.25,88.14,31,0,12.62,clear sky,0.0,0.0
129,San Cristobal,VE,2020-04-02 19:50:18,7.77,-72.22,87.8,58,20,9.17,smoke,0.0,0.0
130,Fortuna,US,2020-04-02 19:50:18,40.6,-124.16,55.0,57,1,16.11,clear sky,0.0,0.0
131,Sao Filipe,CV,2020-04-02 19:49:05,14.9,-24.5,75.38,70,15,9.82,few clouds,0.0,0.0
132,Kamaishi,JP,2020-04-02 19:50:19,39.27,141.88,42.04,71,1,7.99,clear sky,0.0,0.0
133,Faanui,PF,2020-04-02 19:49:04,-16.48,-151.75,82.49,76,3,13.67,light rain,0.028346456692913385,0.0
134,Hobyo,SO,2020-04-02 19:49:08,5.35,48.53,81.32,74,63,12.24,broken clouds,0.0,0.0
135,Zhangye,CN,2020-04-02 19:50:20,38.93,100.45,41.85,30,99,2.93,overcast clouds,0.0,0.0
136,Mana,GF,2020-04-02 19:50:20,5.66,-53.78,78.21,88,73,7.4,light rain,0.08937007874015748,0.0
137,Campbell River,CA,2020-04-02 19:46:39,50.02,-125.24,42.8,74,90,5.82,overcast clouds,0.0,0.0
138,Guerrero Negro,MX,2020-04-02 19:49:05,27.98,-114.06,66.78,58,37,15.97,scattered clouds,0.0,0.0
139,Rovinj,HR,2020-04-02 19:50:21,45.08,13.64,48.2,69,0,5.82,clear sky,0.0,0.0
140,Klaksvik,FO,2020-04-02 19:48:44,62.23,-6.59,30.2,80,98,16.11,light snow,0.0,0.006692913385826772
141,Kirakira,SB,2020-04-02 19:50:21,-10.45,161.92,79.81,87,100,29.86,moderate rain,0.4204724409448819,0.0
142,Lagoa,PT,2020-04-02 19:49:15,39.05,-27.98,60.94,91,100,11.21,light rain,0.02874015748031496,0.0
143,Arraial Do Cabo,BR,2020-04-02 19:48:39,-22.97,-42.03,80.6,83,40,13.87,scattered clouds,0.0,0.0
144,Tiksi,RU,2020-04-02 19:48:32,71.69,128.87,-4.9,90,93,2.91,overcast clouds,0.0,0.0
145,Itamaraca,BR,2020-04-02 19:50:23,-7.75,-34.83,84.2,83,75,9.17,broken clouds,0.0,0.0
146,Taltal,CL,2020-04-02 19:48:41,-25.4,-70.48,69.69,65,10,5.06,clear sky,0.0,0.0
147,Port Hardy,CA,2020-04-02 19:50:23,50.7,-127.42,42.8,60,75,5.82,broken clouds,0.0,0.0
148,Carnarvon,AU,2020-04-02 19:48:50,-24.87,113.63,71.6,78,21,17.22,few clouds,0.0,0.0
149,Tuatapere,NZ,2020-04-02 19:48:53,-46.13,167.68,53.01,95,15,3.0,few clouds,0.0,0.0
150,Vaini,TO,2020-04-02 19:48:36,-21.2,-175.2,73.4,94,90,2.24,light rain,0.0,0.0
151,Nizwa,OM,2020-04-02 19:50:24,22.93,57.53,77.68,31,0,5.06,clear sky,0.0,0.0
152,Piacabucu,BR,2020-04-02 19:50:24,-10.41,-36.43,79.66,79,100,7.49,overcast clouds,0.0,0.0
153,Tecoanapa,MX,2020-04-02 19:50:24,16.52,-98.75,88.36,48,0,13.47,clear sky,0.0,0.0
154,Parana,AR,2020-04-02 19:47:36,-31.73,-60.52,79.0,38,0,4.0,clear sky,0.0,0.0
155,Laguna,US,2020-04-02 19:49:28,38.42,-121.42,64.99,25,1,16.11,clear sky,0.0,0.0
156,Aksu,CN,2020-04-02 19:50:24,41.12,80.26,48.96,34,98,4.07,overcast clouds,0.0,0.0
157,Torata,PE,2020-04-02 19:50:25,-17.08,-70.84,66.56,25,33,8.01,light rain,0.019291338582677165,0.0
158,Saint-Philippe,RE,2020-04-02 19:48:20,-21.36,55.77,73.4,94,75,8.05,broken clouds,0.0,0.0
159,Salalah,OM,2020-04-02 19:48:59,17.02,54.09,80.6,83,40,5.82,scattered clouds,0.0,0.0
160,Menongue,AO,2020-04-02 19:50:26,-14.66,17.69,65.66,63,100,3.44,light rain,0.08543307086614173,0.0
161,Yerbogachen,RU,2020-04-02 19:50:26,61.28,108.01,8.4,90,60,6.38,broken clouds,0.0,0.0
162,Provideniya,RU,2020-04-02 19:48:23,64.38,-173.3,26.6,86,90,11.18,snow,0.0,0.0
163,Castro,BR,2020-04-02 19:48:23,-24.79,-50.01,72.84,52,99,3.78,overcast clouds,0.0,0.0
164,Kavaratti,IN,2020-04-02 19:49:07,10.57,72.64,83.46,71,1,6.08,clear sky,0.0,0.0
165,Sao Joao Da Barra,BR,2020-04-02 19:50:27,-21.64,-41.05,84.2,74,20,11.41,few clouds,0.0,0.0
166,Takoradi,GH,2020-04-02 19:48:41,4.88,-1.76,80.64,85,100,5.66,overcast clouds,0.0,0.0
167,Codrington,AU,2020-04-02 19:50:27,-38.27,141.97,59.67,78,80,15.68,broken clouds,0.0,0.0
168,Cherskiy,RU,2020-04-02 19:48:44,68.75,161.3,-0.56,92,86,6.11,overcast clouds,0.0,0.0
169,Te Anau,NZ,2020-04-02 19:50:28,-45.42,167.72,53.22,73,20,1.25,few clouds,0.0,0.0
170,Tunceli,TR,2020-04-02 19:50:28,39.11,39.55,50.0,71,75,3.36,broken clouds,0.0,0.0
171,Gombong,ID,2020-04-02 19:50:29,-7.61,109.51,78.3,84,97,2.06,overcast clouds,0.0,0.0
172,Paraiso,CR,2020-04-02 19:50:29,9.84,-83.87,86.0,42,75,4.7,broken clouds,0.0,0.0
173,San Pedro,PH,2020-04-02 19:48:33,14.35,121.02,79.0,69,20,3.36,few clouds,0.0,0.0
174,Laela,TZ,2020-04-02 19:50:29,-8.57,32.05,61.65,62,97,6.55,light rain,0.013385826771653545,0.0
175,Adet,ET,2020-04-02 19:50:29,11.26,37.49,66.87,28,93,2.26,overcast clouds,0.0,0.0
176,Townsville,AU,2020-04-02 19:50:30,-19.25,146.8,71.01,100,15,7.11,light rain,0.006299212598425198,0.0
177,Avarua,CK,2020-04-02 19:48:18,-21.21,-159.78,80.6,88,75,10.29,broken clouds,0.0,0.0
178,Yago,MX,2020-04-02 19:50:30,21.83,-105.07,87.8,38,5,8.05,clear sky,0.0,0.0
179,Nikolsk,RU,2020-04-02 19:50:30,53.72,46.07,32.67,83,77,8.41,broken clouds,0.0,0.0
180,Pak Phanang,TH,2020-04-02 19:50:30,8.35,100.2,80.26,79,23,2.98,light rain,0.005511811023622048,0.0
181,Keti Bandar,PK,2020-04-02 19:50:31,24.14,67.45,75.4,80,0,10.07,clear sky,0.0,0.0
182,Prince Rupert,CA,2020-04-02 19:49:59,54.32,-130.32,39.2,55,1,6.93,clear sky,0.0,0.0
183,Nanortalik,GL,2020-04-02 19:48:28,60.14,-45.24,24.57,79,0,4.16,clear sky,0.0,0.0
184,Strezhevoy,RU,2020-04-02 19:50:32,60.73,77.59,33.8,95,75,13.42,light intensity shower rain,0.0,0.0
185,Pueblo Nuevo,MX,2020-04-02 19:50:32,23.38,-105.38,78.44,11,4,10.78,clear sky,0.0,0.0
186,Andros Town,BS,2020-04-02 19:50:32,24.7,-77.77,77.0,47,20,9.17,few clouds,0.0,0.0
187,Semey,KZ,2020-04-02 19:50:33,50.41,80.23,39.04,82,17,6.02,few clouds,0.0,0.0
188,Kodiak,US,2020-04-02 19:48:39,57.79,-152.41,39.2,86,90,3.36,overcast clouds,0.0,0.0
189,San Ramon,US,2020-04-02 19:50:23,37.78,-121.98,66.0,31,1,5.82,clear sky,0.0,0.0
190,Kaitangata,NZ,2020-04-02 19:50:34,-46.28,169.85,53.01,84,11,2.1,few clouds,0.0,0.0
191,Balkanabat,TM,2020-04-02 19:50:34,39.51,54.37,61.52,55,64,11.48,broken clouds,0.0,0.0
192,San Luis,AR,2020-04-02 19:50:34,-33.3,-66.34,69.96,20,0,7.54,clear sky,0.0,0.0
193,Lalupon,NG,2020-04-02 19:50:35,7.47,4.07,79.92,74,100,6.67,overcast clouds,0.0,0.0
194,Hovd,MN,2020-04-02 19:50:35,48.01,91.64,27.97,45,0,5.97,clear sky,0.0,0.0
195,Sitka,US,2020-04-02 19:46:34,57.05,-135.33,35.6,51,1,4.7,clear sky,0.0,0.0
196,Talnakh,RU,2020-04-02 19:50:35,69.49,88.4,28.4,92,90,42.5,overcast clouds,0.0,0.0
197,Juneau,US,2020-04-02 19:46:49,58.3,-134.42,37.4,27,1,14.99,clear sky,0.0,0.0
198,Eenhana,NA,2020-04-02 19:50:35,-17.47,16.33,75.2,78,88,4.7,light rain,0.007086614173228346,0.0
199,Tyukhtet,RU,2020-04-02 19:50:35,56.54,89.3,38.82,87,100,10.07,light rain,0.022047244094488192,0.0
200,Saint Anthony,US,2020-04-02 19:48:25,45.02,-93.22,61.0,50,90,14.99,overcast clouds,0.0,0.0
201,Petropavlovsk-Kamchatskiy,RU,2020-04-02 19:50:36,53.05,158.65,30.2,100,90,11.18,light shower snow,0.0,0.0
202,Port Macquarie,AU,2020-04-02 19:45:50,-31.43,152.92,66.2,100,90,4.7,overcast clouds,0.0,0.0
203,Shetpe,KZ,2020-04-02 19:50:37,44.17,52.12,48.34,90,100,13.2,moderate rain,0.20236220472440944,0.0
204,Kalianget,ID,2020-04-02 19:50:37,-7.05,113.93,80.22,77,70,2.91,broken clouds,0.0,0.0
205,Tilichiki,RU,2020-04-02 19:50:37,60.47,166.1,8.65,91,0,6.02,clear sky,0.0,0.0
206,Bredasdorp,ZA,2020-04-02 19:48:26,-34.53,20.04,66.99,82,0,8.05,clear sky,0.0,0.0
207,Yulara,AU,2020-04-02 19:50:38,-25.24,130.99,75.2,60,81,5.82,broken clouds,0.0,0.0
208,Antofagasta,CL,2020-04-02 19:46:35,-23.65,-70.4,69.8,60,22,13.87,few clouds,0.0,0.0
209,Eyl,SO,2020-04-02 19:50:38,7.98,49.82,80.62,71,40,12.48,scattered clouds,0.0,0.0
210,Kahului,US,2020-04-02 19:47:19,20.89,-156.47,77.0,65,40,6.93,scattered clouds,0.0,0.0
211,Neuquen,AR,2020-04-02 19:50:39,-38.95,-68.06,77.0,23,0,3.36,clear sky,0.0,0.0
212,Lubao,PH,2020-04-02 19:50:40,14.92,120.55,79.0,73,20,2.24,few clouds,0.0,0.0
213,Swakopmund,NA,2020-04-02 19:50:40,-22.68,14.53,60.01,94,0,1.01,clear sky,0.0,0.0
214,Antigonish,CA,2020-04-02 19:50:40,45.62,-62.0,43.0,100,90,21.92,light rain,0.0,0.0
215,Karaton,ID,2020-04-02 19:50:40,-6.34,106.1,78.8,83,20,6.93,few clouds,0.0,0.0
216,Yar-Sale,RU,2020-04-02 19:48:26,66.83,70.83,16.14,94,96,13.96,overcast clouds,0.0,0.0
217,Cayenne,GF,2020-04-02 19:48:30,4.93,-52.33,80.6,78,100,1.12,light rain,0.07204724409448819,0.0
218,Mehamn,NO,2020-04-02 19:48:50,71.04,27.85,24.8,78,73,12.75,broken clouds,0.0,0.0
219,Kudahuvadhoo,MV,2020-04-02 19:50:41,2.67,72.89,83.19,74,35,6.44,scattered clouds,0.0,0.0
220,Hualmay,PE,2020-04-02 19:50:41,-11.1,-77.61,79.32,60,24,8.97,few clouds,0.0,0.0
221,West Bay,KY,2020-04-02 19:47:37,19.37,-81.42,86.0,62,20,8.05,few clouds,0.0,0.0
222,Comodoro Rivadavia,AR,2020-04-02 19:47:48,-45.87,-67.5,73.4,35,5,6.93,clear sky,0.0,0.0
223,Verkhniy Uslon,RU,2020-04-02 19:50:42,55.77,48.98,35.6,64,100,6.71,overcast clouds,0.0,0.0
224,Sisimiut,GL,2020-04-02 19:50:43,66.94,-53.67,6.44,83,0,10.71,clear sky,0.0,0.0
225,Lilongwe,MW,2020-04-02 19:50:43,-13.97,33.79,60.26,68,5,3.87,clear sky,0.0,0.0
226,Soe,ID,2020-04-02 19:50:43,-9.86,124.28,66.18,81,9,1.57,clear sky,0.0,0.0
227,Lima,PE,2020-04-02 19:50:43,-12.04,-77.03,78.8,65,1,9.17,clear sky,0.0,0.0
228,Waddan,LY,2020-04-02 19:50:43,29.16,16.14,78.13,16,6,6.85,clear sky,0.0,0.0
229,Goderich,CA,2020-04-02 19:49:14,43.75,-81.72,44.01,91,25,4.0,scattered clouds,0.0,0.0
230,Chunoyar,RU,2020-04-02 19:50:44,57.45,97.32,31.21,92,0,5.19,clear sky,0.0,0.0
231,Padang,ID,2020-04-02 19:48:39,-0.95,100.35,77.29,78,100,3.6,light rain,0.11496062992125984,0.0
232,Lompoc,US,2020-04-02 19:50:45,34.64,-120.46,69.01,34,0,10.29,clear sky,0.0,0.0
233,Ararat,AM,2020-04-02 19:50:45,39.83,44.7,46.4,65,17,3.36,few clouds,0.0,0.0
234,Hithadhoo,MV,2020-04-02 19:48:45,-0.6,73.08,83.89,71,100,4.45,overcast clouds,0.0,0.0
235,Vieques,PR,2020-04-02 19:50:46,18.43,-65.83,86.0,58,40,10.29,scattered clouds,0.0,0.0
236,Matara,LK,2020-04-02 19:48:31,5.95,80.54,73.36,87,3,6.87,clear sky,0.0,0.0
237,Hirado,JP,2020-04-02 19:50:46,33.36,129.55,46.99,78,97,3.24,overcast clouds,0.0,0.0
238,Saryagash,KZ,2020-04-02 19:50:46,41.45,69.17,51.8,81,53,4.7,broken clouds,0.0,0.0
239,Kattivakkam,IN,2020-04-02 19:50:47,13.22,80.32,82.99,83,20,4.7,few clouds,0.0,0.0
240,Gelendzhik,RU,2020-04-02 19:50:48,44.57,38.07,43.0,64,1,8.39,clear sky,0.0,0.0
241,Zhezkazgan,KZ,2020-04-02 19:50:48,47.8,67.71,46.98,63,98,2.93,overcast clouds,0.0,0.0
242,Sola,VU,2020-04-02 19:50:48,-13.88,167.55,80.73,80,100,8.99,light rain,0.09606299212598425,0.0
243,San Patricio,MX,2020-04-02 19:48:23,19.22,-104.7,86.0,74,5,23.04,clear sky,0.0,0.0
244,Sinegorskiy,RU,2020-04-02 19:50:48,48.01,40.84,37.96,68,2,5.41,clear sky,0.0,0.0
245,Port Hedland,AU,2020-04-02 19:50:48,-20.32,118.57,73.4,88,10,1.12,clear sky,0.0,0.0
246,Malakal,SS,2020-04-02 19:50:49,9.53,31.66,87.03,11,0,1.45,clear sky,0.0,0.0
247,Palu,ID,2020-04-02 19:50:49,-0.89,119.87,75.42,80,32,2.3,scattered clouds,0.0,0.0
248,Northam,GB,2020-04-02 19:50:50,51.03,-4.22,51.8,76,40,9.17,scattered clouds,0.0,0.0
249,Baiquan,CN,2020-04-02 19:50:50,47.58,126.08,38.73,57,100,17.85,overcast clouds,0.0,0.0
250,Luba,GQ,2020-04-02 19:50:51,3.46,8.55,82.4,94,40,5.82,scattered clouds,0.0,0.0
251,Dikson,RU,2020-04-02 19:48:28,73.51,80.55,21.42,96,100,27.29,light snow,0.0,0.01299212598425197
252,Komsomolskiy,UZ,2020-04-02 19:50:51,40.43,71.72,51.8,62,1,6.93,clear sky,0.0,0.0
253,Grover Beach,US,2020-04-02 19:47:05,35.12,-120.62,68.0,55,1,12.75,clear sky,0.0,0.0
254,Merauke,ID,2020-04-02 19:50:51,-8.47,140.33,77.0,92,98,6.11,overcast clouds,0.0,0.0
255,Norman Wells,CA,2020-04-02 19:49:03,65.28,-126.83,8.6,55,5,26.4,clear sky,0.0,0.0
256,Mabaruma,GY,2020-04-02 19:50:52,8.2,-59.78,83.46,65,100,9.1,light rain,0.005118110236220473,0.0
257,Vila Do Maio,CV,2020-04-02 19:50:52,15.13,-23.22,82.4,45,50,14.99,scattered clouds,0.0,0.0
258,Ballina,AU,2020-04-02 19:50:53,-28.87,153.57,69.8,94,17,4.7,few clouds,0.0,0.0
259,Cabo San Lucas,MX,2020-04-02 19:47:03,22.89,-109.91,86.0,28,5,11.41,clear sky,0.0,0.0
260,Talara,PE,2020-04-02 19:50:53,-4.58,-81.27,62.6,100,72,14.99,broken clouds,0.0,0.0
261,Fairbanks,US,2020-04-02 19:49:28,64.84,-147.72,28.99,67,75,2.01,broken clouds,0.0,0.0
262,Karakol,KG,2020-04-02 19:50:53,42.49,78.39,39.85,38,100,1.83,overcast clouds,0.0,0.0
263,Bam,IR,2020-04-02 19:50:45,29.11,58.36,70.29,26,8,6.55,clear sky,0.0,0.0
264,Hargeysa,SO,2020-04-02 19:50:55,9.56,44.06,70.92,57,29,6.38,scattered clouds,0.0,0.0
265,Makakilo City,US,2020-04-02 19:48:25,21.35,-158.09,80.6,69,1,8.05,clear sky,0.0,0.0
266,Saint-Francois,FR,2020-04-02 19:50:55,46.42,3.91,48.2,45,0,6.93,clear sky,0.0,0.0
267,Udala,ES,2020-04-02 19:50:55,43.08,-2.51,52.0,75,40,5.82,scattered clouds,0.0,0.0
268,Cortez,US,2020-04-02 19:49:41,37.35,-108.59,57.2,30,75,16.11,broken clouds,0.0,0.0
269,Bonthe,SL,2020-04-02 19:50:56,7.53,-12.51,81.66,84,67,8.01,broken clouds,0.0,0.0
270,Nouakchott,MR,2020-04-02 19:50:57,18.09,-15.98,75.2,64,70,14.99,broken clouds,0.0,0.0
271,Nome,US,2020-04-02 19:50:57,64.5,-165.41,21.99,92,90,11.41,light snow,0.0,0.0
272,Port-Cartier,CA,2020-04-02 19:50:57,50.03,-66.87,42.8,93,90,11.41,light rain,0.0,0.0
273,Kaeo,NZ,2020-04-02 19:50:57,-35.1,173.78,54.0,93,0,1.99,clear sky,0.0,0.0
274,Micheweni,TZ,2020-04-02 19:49:03,-4.97,39.83,84.27,75,100,11.9,moderate rain,0.16023622047244096,0.0
275,Sarakhs,IR,2020-04-02 19:50:58,36.54,61.16,68.0,49,75,6.93,light rain,0.03622047244094489,0.0
276,Santa Maria Da Vitoria,BR,2020-04-02 19:50:58,-13.39,-44.19,77.07,69,20,1.36,light rain,0.01968503937007874,0.0
277,West Odessa,US,2020-04-02 19:50:58,31.84,-102.5,86.0,14,1,10.29,clear sky,0.0,0.0
278,Pacific Grove,US,2020-04-02 19:49:14,36.62,-121.92,64.99,41,1,11.41,clear sky,0.0,0.0
279,Sao Lourenco Do Sul,BR,2020-04-02 19:50:59,-31.37,-51.98,77.0,44,75,13.87,broken clouds,0.0,0.0
280,Bow Island,CA,2020-04-02 19:51:00,49.87,-111.37,19.99,48,75,5.82,broken clouds,0.0,0.0
281,Hofn,IS,2020-04-02 19:51:00,64.25,-15.21,25.41,84,51,19.62,broken clouds,0.0,0.0
282,Paldiski,EE,2020-04-02 19:51:00,59.36,24.05,43.0,75,90,21.92,overcast clouds,0.0,0.0
283,Rawlins,US,2020-04-02 19:51:00,41.79,-107.24,26.6,67,90,4.7,light snow,0.0,0.0
284,Jalu,LY,2020-04-02 19:51:00,29.03,21.55,72.66,21,0,11.12,clear sky,0.0,0.0
285,Chimoio,MZ,2020-04-02 19:51:01,-19.12,33.48,66.2,88,20,7.27,few clouds,0.0,0.0
286,Kiruna,SE,2020-04-02 19:51:01,67.86,20.23,19.4,85,99,1.12,light snow,0.0,0.0
287,Severodvinsk,RU,2020-04-02 19:51:01,64.56,39.83,24.8,68,40,4.47,scattered clouds,0.0,0.0
288,Lasa,IT,2020-04-02 19:51:01,46.62,10.7,51.8,59,5,1.77,clear sky,0.0,0.0
289,Flinders,AU,2020-04-02 19:51:01,-34.58,150.86,66.0,93,90,5.82,overcast clouds,0.0,0.0
290,Paamiut,GL,2020-04-02 19:51:01,61.99,-49.67,22.5,83,0,16.84,clear sky,0.0,0.0
291,Poya,NC,2020-04-02 19:49:13,-21.35,165.15,77.74,82,100,10.94,light rain,0.006692913385826772,0.0
292,Umm Lajj,SA,2020-04-02 19:51:02,25.02,37.27,74.8,28,0,7.02,clear sky,0.0,0.0
293,Gat,IL,2020-04-02 19:51:02,31.61,34.76,61.0,72,46,2.24,scattered clouds,0.0,0.0
294,Salekhard,RU,2020-04-02 19:51:02,66.53,66.6,12.9,93,14,11.97,few clouds,0.0,0.0
295,Vila Franca Do Campo,PT,2020-04-02 19:51:02,37.72,-25.43,62.6,93,75,18.34,broken clouds,0.0,0.0
296,Mahibadhoo,MV,2020-04-02 19:49:24,3.78,72.97,83.52,75,24,9.6,few clouds,0.0,0.0
297,Kodinsk,RU,2020-04-02 19:51:02,58.69,99.18,28.49,96,3,5.73,clear sky,0.0,0.0
298,Bandarbeyla,SO,2020-04-02 19:51:03,9.49,50.81,79.45,69,46,8.34,scattered clouds,0.0,0.0
299,Kalmunai,LK,2020-04-02 19:51:03,7.42,81.82,78.37,75,2,4.68,clear sky,0.0,0.0
300,Barcelos,PT,2020-04-02 19:46:17,41.54,-8.62,60.01,67,0,6.93,clear sky,0.0,0.0
301,Royan,FR,2020-04-02 19:51:03,45.63,-1.03,53.6,77,0,9.17,clear sky,0.0,0.0
302,Gijon,ES,2020-04-02 19:51:03,43.54,-5.66,50.0,76,75,4.7,broken clouds,0.0,0.0
303,Pingliang,CN,2020-04-02 19:51:03,35.54,106.69,41.54,45,100,2.39,overcast clouds,0.0,0.0
304,Erdenet,MN,2020-04-02 19:51:04,49.03,104.08,33.76,43,0,2.62,clear sky,0.0,0.0
305,Cap-Chat,CA,2020-04-02 19:51:04,49.1,-66.68,38.7,90,100,12.5,overcast clouds,0.0,0.0
306,Kruisfontein,ZA,2020-04-02 19:49:01,-34.0,24.73,62.33,80,0,13.15,clear sky,0.0,0.0
307,Batsfjord,NO,2020-04-02 19:51:04,70.63,29.72,15.8,92,93,3.36,overcast clouds,0.0,0.0
308,Ulaangom,MN,2020-04-02 19:51:04,49.98,92.07,10.09,78,0,2.04,clear sky,0.0,0.0
309,Contamana,PE,2020-04-02 19:51:04,-7.33,-75.02,93.52,39,66,1.9,broken clouds,0.0,0.0
310,Ponta Do Sol,PT,2020-04-02 19:51:04,32.67,-17.1,62.6,72,75,10.29,broken clouds,0.0,0.0
311,Tiznit,MA,2020-04-02 19:51:05,29.58,-9.5,53.29,65,23,4.88,few clouds,0.0,0.0
312,Novoagansk,RU,2020-04-02 19:51:05,61.94,76.66,26.98,97,100,20.24,light snow,0.0,0.014173228346456693
313,Shache,CN,2020-04-02 19:51:05,38.42,77.24,51.13,25,100,4.41,overcast clouds,0.0,0.0
314,Persianovskiy,RU,2020-04-02 19:51:05,47.51,40.11,41.0,37,0,4.47,clear sky,0.0,0.0
315,Axim,GH,2020-04-02 19:51:05,4.87,-2.24,80.67,86,100,5.03,overcast clouds,0.0,0.0
316,Opuwo,NA,2020-04-02 19:51:05,-18.06,13.84,75.61,34,51,3.96,broken clouds,0.0,0.0
317,Katsuura,JP,2020-04-02 19:51:05,35.13,140.3,50.0,39,0,11.41,clear sky,0.0,0.0
318,Pevek,RU,2020-04-02 19:51:06,69.7,170.31,4.33,94,100,7.16,light snow,0.0,0.009448818897637795
319,Carmarthen,GB,2020-04-02 19:51:06,51.86,-4.31,52.0,71,49,17.22,light rain,0.007086614173228346,0.0
320,Tasiilaq,GL,2020-04-02 19:48:27,65.61,-37.64,24.8,53,5,5.82,clear sky,0.0,0.0
321,Balaguer,ES,2020-04-02 19:51:06,41.79,0.81,55.0,87,40,3.36,scattered clouds,0.0,0.0
322,Tommot,RU,2020-04-02 19:51:06,58.96,126.29,-2.13,87,74,2.98,broken clouds,0.0,0.0
323,Doha,QA,2020-04-02 19:48:48,25.29,51.53,80.01,65,39,6.93,scattered clouds,0.0,0.0
324,Pinega,RU,2020-04-02 19:51:07,64.7,43.39,20.89,97,2,5.06,clear sky,0.0,0.0
325,Vao,NC,2020-04-02 19:48:54,-22.67,167.48,75.67,82,100,22.93,light rain,0.005118110236220473,0.0
326,Tacotalpa,MX,2020-04-02 19:51:07,17.6,-92.82,93.2,44,5,8.05,clear sky,0.0,0.0
327,Barroso,BR,2020-04-02 19:51:07,-21.19,-43.98,69.73,70,36,6.22,light rain,0.03937007874015748,0.0
328,Puksoozero,RU,2020-04-02 19:51:07,62.59,40.61,30.16,97,91,10.69,light snow,0.0,0.01889763779527559
329,Kotaparh,IN,2020-04-02 19:51:07,19.15,82.35,79.05,27,69,3.87,broken clouds,0.0,0.0
330,Aklavik,CA,2020-04-02 19:51:07,68.22,-135.01,12.2,46,5,17.22,clear sky,0.0,0.0
331,Cabadiangan,PH,2020-04-02 19:51:07,9.75,122.47,79.27,75,49,11.65,scattered clouds,0.0,0.0
332,Baker City,US,2020-04-02 19:51:08,44.77,-117.83,39.99,44,75,3.36,broken clouds,0.0,0.0
333,Sept-Iles,CA,2020-04-02 19:46:48,50.2,-66.38,42.8,93,90,11.41,light rain,0.0,0.0
334,Ziarat,PK,2020-04-02 19:51:08,30.38,67.73,44.11,20,54,3.18,broken clouds,0.0,0.0
335,Jieshi,CN,2020-04-02 19:51:08,22.81,115.83,68.0,82,90,12.64,overcast clouds,0.0,0.0
336,Los Llanos De Aridane,ES,2020-04-02 19:51:08,28.66,-17.92,66.2,72,40,4.7,scattered clouds,0.0,0.0
337,Kang,BW,2020-04-02 19:51:08,-23.68,22.79,68.59,47,48,10.31,light rain,0.00826771653543307,0.0
338,Namibe,AO,2020-04-02 19:49:29,-15.2,12.15,74.23,72,54,5.44,broken clouds,0.0,0.0
339,Son La,VN,2020-04-02 19:49:02,21.32,103.9,67.5,73,48,1.68,light rain,0.029133858267716535,0.0
340,Mweka,CD,2020-04-02 19:51:09,-4.85,21.57,72.34,81,100,3.71,light rain,0.09606299212598425,0.0
341,Tukrah,LY,2020-04-02 19:51:09,32.53,20.58,68.45,39,54,19.01,broken clouds,0.0,0.0
342,Vung Tau,VN,2020-04-02 19:51:09,10.35,107.08,81.55,77,0,19.06,clear sky,0.0,0.0
343,Chichester,GB,2020-04-02 19:51:09,50.84,-0.78,52.0,76,46,10.29,scattered clouds,0.0,0.0
344,Ayan,RU,2020-04-02 19:51:09,56.45,138.17,23.05,94,100,14.74,light snow,0.0,0.013385826771653545
345,Beyneu,KZ,2020-04-02 19:51:10,45.32,55.2,53.78,75,100,17.22,light rain,0.0673228346456693,0.0
346,Simdega,IN,2020-04-02 19:51:10,22.62,84.52,75.9,23,0,5.68,clear sky,0.0,0.0
347,San Francisco,US,2020-04-02 19:46:34,37.77,-122.42,66.0,36,1,8.05,clear sky,0.0,0.0
348,Plouzane,FR,2020-04-02 19:51:10,48.38,-4.62,48.2,81,75,6.93,broken clouds,0.0,0.0
349,Samarai,PG,2020-04-02 19:49:23,-10.62,150.67,79.38,81,44,7.76,light rain,0.005511811023622048,0.0
350,Satkhira,BD,2020-04-02 19:51:10,22.72,89.1,82.4,88,40,9.31,haze,0.0,0.0
351,Constitucion,CL,2020-04-02 19:43:58,-35.33,-72.42,69.53,41,2,13.02,clear sky,0.0,0.0
352,Tefe,BR,2020-04-02 19:51:11,-3.35,-64.71,84.2,89,20,3.36,few clouds,0.0,0.0
353,Rurrenabaque,BO,2020-04-02 19:51:11,-14.44,-67.53,91.58,48,10,3.67,light rain,0.007480314960629922,0.0
354,Abapo,BO,2020-04-02 19:51:11,-18.83,-63.47,77.54,57,90,6.29,light rain,0.03228346456692913,0.0
355,Husavik,IS,2020-04-02 19:48:57,66.04,-17.34,24.8,73,40,6.93,scattered clouds,0.0,0.0
356,Dukat,RU,2020-04-02 19:51:11,62.55,155.55,5.49,86,93,2.98,overcast clouds,0.0,0.0
357,Xining,CN,2020-04-02 19:51:11,36.62,101.77,30.43,38,100,3.18,light snow,0.0,0.006692913385826772
358,Birjand,IR,2020-04-02 19:48:55,32.87,59.22,53.6,46,55,11.41,broken clouds,0.0,0.0
359,Sinjar,IQ,2020-04-02 19:51:12,36.32,41.88,54.39,60,0,0.69,clear sky,0.0,0.0
360,Kandrian,PG,2020-04-02 19:51:12,-6.22,149.55,78.22,88,96,6.15,light rain,0.09094488188976378,0.0
361,Salinas,US,2020-04-02 19:51:12,36.68,-121.66,64.99,36,1,6.93,clear sky,0.0,0.0
362,Westport,US,2020-04-02 19:46:23,41.14,-73.36,57.99,37,20,24.16,few clouds,0.0,0.0
363,Nhulunbuy,AU,2020-04-02 19:51:12,-12.23,136.77,77.0,88,33,5.26,scattered clouds,0.0,0.0
364,Abomsa,ET,2020-04-02 19:51:12,9.98,39.98,74.66,37,62,3.58,broken clouds,0.0,0.0
365,Cockburn Town,TC,2020-04-02 19:46:49,21.46,-71.14,79.39,74,0,10.6,light rain,0.013385826771653545,0.0
366,Poum,NC,2020-04-02 19:51:13,-20.23,164.02,79.29,84,100,19.3,light rain,0.02598425196850394,0.0
367,Saraland,US,2020-04-02 19:51:13,30.82,-88.07,78.01,31,1,5.82,clear sky,0.0,0.0
368,Pisco,PE,2020-04-02 19:48:47,-13.7,-76.22,80.01,30,27,10.29,scattered clouds,0.0,0.0
369,Puerto Madryn,AR,2020-04-02 19:51:13,-42.77,-65.04,68.68,30,22,20.51,few clouds,0.0,0.0
370,Labuhan,ID,2020-04-02 19:51:13,-6.88,112.21,79.05,81,61,1.41,light rain,0.010629921259842521,0.0
371,Kununurra,AU,2020-04-02 19:51:13,-15.77,128.73,80.6,78,40,4.52,scattered clouds,0.0,0.0
372,Noumea,NC,2020-04-02 19:47:46,-22.28,166.46,79.0,88,75,8.05,broken clouds,0.0,0.0
373,Shimoda,JP,2020-04-02 19:51:14,34.67,138.95,44.01,79,1,1.01,clear sky,0.0,0.0
374,Tungi,BD,2020-04-02 19:51:14,23.89,90.41,75.2,78,75,7.02,haze,0.0,0.0
375,Loa Janan,ID,2020-04-02 19:51:14,-0.58,117.09,74.61,96,11,3.27,light rain,0.010236220472440946,0.0
376,Ndola,ZM,2020-04-02 19:51:14,-12.96,28.64,58.41,61,13,6.02,few clouds,0.0,0.0
377,Copiapo,CL,2020-04-02 19:48:56,-27.37,-70.33,64.4,72,90,8.05,overcast clouds,0.0,0.0
378,Banda Aceh,ID,2020-04-02 19:51:14,5.56,95.32,79.65,80,41,2.66,light rain,0.012598425196850395,0.0
379,Hambantota,LK,2020-04-02 19:48:26,6.12,81.12,75.2,100,2,2.24,clear sky,0.0,0.0
380,Geraldton,AU,2020-04-02 19:51:15,-28.77,114.6,59.0,82,79,6.93,broken clouds,0.0,0.0
381,Kiunga,PG,2020-04-02 19:49:11,-6.12,141.29,74.01,98,86,3.04,moderate rain,0.2988188976377953,0.0
382,Ruwi,OM,2020-04-02 19:51:15,23.6,58.55,77.0,78,0,1.12,clear sky,0.0,0.0
383,Pozo Colorado,PY,2020-04-02 19:51:15,-23.49,-58.8,83.64,61,100,13.31,overcast clouds,0.0,0.0
384,Roros,NO,2020-04-02 19:51:15,62.57,11.38,23.0,85,90,8.05,light snow,0.0,0.0
385,San Rafael,AR,2020-04-02 19:51:15,-34.62,-68.33,74.37,17,0,12.44,clear sky,0.0,0.0
386,Tongren,CN,2020-04-02 19:51:15,27.72,109.19,51.78,80,100,4.97,light rain,0.05511811023622047,0.0
387,Burnie,AU,2020-04-02 19:51:16,-41.07,145.92,53.01,89,100,1.99,overcast clouds,0.0,0.0
388,Fort Nelson,CA,2020-04-02 19:51:16,58.81,-122.7,8.6,39,5,2.24,clear sky,0.0,0.0
389,Coquimbo,CL,2020-04-02 19:51:16,-29.95,-71.34,66.2,68,75,11.41,broken clouds,0.0,0.0
390,Ndele,CF,2020-04-02 19:51:16,8.41,20.65,83.19,30,45,1.63,scattered clouds,0.0,0.0
391,Bundaberg,AU,2020-04-02 19:51:16,-24.85,152.35,68.0,94,20,6.93,few clouds,0.0,0.0
392,Mayumba,GA,2020-04-02 19:49:17,-3.43,10.66,79.95,88,64,6.06,broken clouds,0.0,0.0
393,Veydelevka,RU,2020-04-02 19:51:16,50.15,38.45,37.62,71,0,6.44,clear sky,0.0,0.0
394,Ifakara,TZ,2020-04-02 19:51:17,-8.13,36.68,72.72,80,64,0.89,light rain,0.04921259842519685,0.0
395,Puqi,CN,2020-04-02 19:51:17,29.72,113.88,54.09,78,88,3.15,overcast clouds,0.0,0.0
396,Bahar,IR,2020-04-02 19:51:17,34.91,48.44,46.74,42,91,6.64,overcast clouds,0.0,0.0
397,Santa Maria,BR,2020-04-02 19:51:17,-29.68,-53.81,70.36,47,0,10.09,clear sky,0.0,0.0
398,Banihal,IN,2020-04-02 19:51:17,33.42,75.2,43.57,32,5,4.79,clear sky,0.0,0.0
399,Bubaque,GW,2020-04-02 19:51:17,11.28,-15.83,79.7,74,0,17.52,clear sky,0.0,0.0
400,Zhigansk,RU,2020-04-02 19:51:17,66.77,123.37,2.66,93,86,2.98,overcast clouds,0.0,0.0
401,Castlemaine,AU,2020-04-02 19:51:18,-37.07,144.22,55.99,63,97,5.37,overcast clouds,0.0,0.0
402,Pilar,BR,2020-04-02 19:51:18,-9.6,-35.96,84.2,74,75,9.17,broken clouds,0.0,0.0
403,Saint-Denis,FR,2020-04-02 19:51:18,48.92,2.33,48.99,57,90,4.7,overcast clouds,0.0,0.0
404,Oktyabrskiy,RU,2020-04-02 19:51:18,54.48,53.47,30.47,93,95,8.46,overcast clouds,0.0,0.0
405,Necochea,AR,2020-04-02 19:51:18,-38.55,-58.74,64.99,64,11,5.99,few clouds,0.0,0.0
406,Nishihara,JP,2020-04-02 19:51:18,26.18,127.76,68.0,72,75,3.36,broken clouds,0.0,0.0
407,Wewak,PG,2020-04-02 19:51:18,-3.55,143.63,79.02,82,100,8.08,light rain,0.07125984251968505,0.0
408,Pailon,BO,2020-04-02 19:51:18,-17.65,-62.75,93.2,56,75,9.17,broken clouds,0.0,0.0
409,Villa Carlos Paz,AR,2020-04-02 19:51:19,-31.42,-64.5,75.2,31,0,10.29,clear sky,0.0,0.0
410,Kysyl-Syr,RU,2020-04-02 19:51:19,63.9,122.76,2.39,92,88,5.68,overcast clouds,0.0,0.0
411,Metro,ID,2020-04-02 19:51:19,-5.11,105.31,75.04,91,47,3.11,scattered clouds,0.0,0.0
412,Moron,AR,2020-04-02 19:51:19,-34.65,-58.62,73.4,49,0,10.29,clear sky,0.0,0.0
413,Aripuana,BR,2020-04-02 19:51:19,-9.17,-60.63,86.67,69,66,1.45,light rain,0.011023622047244096,0.0
414,Pochutla,MX,2020-04-02 19:51:19,15.74,-96.47,93.0,52,40,11.41,scattered clouds,0.0,0.0
415,Almaznyy,RU,2020-04-02 19:51:19,48.04,40.05,37.4,37,0,4.47,clear sky,0.0,0.0
416,Palmer,US,2020-04-02 19:45:55,42.16,-72.33,53.6,77,90,21.92,light rain,0.0,0.0
417,Anda,CN,2020-04-02 19:51:20,46.4,125.32,40.5,53,72,20.92,broken clouds,0.0,0.0
418,Saint George,US,2020-04-02 19:46:27,37.1,-113.58,62.01,30,40,3.36,scattered clouds,0.0,0.0
419,Concepcion Del Oro,MX,2020-04-02 19:51:20,24.63,-101.42,77.97,8,0,15.39,clear sky,0.0,0.0
420,Graaff-Reinet,ZA,2020-04-02 19:51:20,-32.25,24.53,62.01,82,0,2.53,clear sky,0.0,0.0
421,Alofi,NU,2020-04-02 19:48:40,-19.06,-169.92,78.8,88,100,4.7,overcast clouds,0.0,0.0
422,Panama City,PA,2020-04-02 19:49:21,8.99,-79.52,93.2,52,40,5.82,scattered clouds,0.0,0.0
423,Sao Caetano De Odivelas,BR,2020-04-02 19:51:21,-0.75,-48.02,80.01,88,100,10.09,light rain,0.07755905511811025,0.0
424,Mount Gambier,AU,2020-04-02 19:51:21,-37.83,140.77,57.2,87,40,9.17,scattered clouds,0.0,0.0
425,Sasykoli,RU,2020-04-02 19:51:21,47.55,47.0,39.52,59,0,3.22,clear sky,0.0,0.0
426,Bitung,ID,2020-04-02 19:51:21,1.45,125.18,73.4,100,20,5.68,few clouds,0.0,0.0
427,Sinnamary,GF,2020-04-02 19:51:21,5.38,-52.95,77.07,86,100,10.29,light rain,0.06456692913385827,0.0
428,Barra Do Garcas,BR,2020-04-02 19:51:21,-15.89,-52.26,83.14,65,38,1.23,scattered clouds,0.0,0.0
429,Muros,ES,2020-04-02 19:49:30,42.78,-9.06,60.01,76,40,11.41,scattered clouds,0.0,0.0
430,Decatur,US,2020-04-02 19:46:32,39.84,-88.95,66.0,39,1,13.87,clear sky,0.0,0.0
431,Ponta Delgada,PT,2020-04-02 19:51:22,37.73,-25.67,62.6,93,75,18.34,broken clouds,0.0,0.0
432,Arrecife,ES,2020-04-02 19:48:34,28.96,-13.55,66.2,68,20,14.99,few clouds,0.0,0.0
433,Coihaique,CL,2020-04-02 19:51:22,-45.58,-72.07,62.6,48,40,11.41,scattered clouds,0.0,0.0
434,Gushikawa,JP,2020-04-02 19:51:22,26.35,127.87,68.0,82,90,6.93,overcast clouds,0.0,0.0
435,Ixtapa,MX,2020-04-02 19:49:28,20.7,-105.2,82.0,65,5,8.05,clear sky,0.0,0.0
436,Hastings,GB,2020-04-02 19:51:22,50.86,0.57,52.0,87,79,6.93,light rain,0.005905511811023622,0.0
437,Kharan,PK,2020-04-02 19:51:23,28.58,65.42,71.42,17,0,2.75,clear sky,0.0,0.0
438,Stranda,NO,2020-04-02 19:51:23,62.31,6.94,39.0,74,90,18.34,light shower snow,0.0,0.0
439,Camapua,BR,2020-04-02 19:51:23,-19.53,-54.04,81.19,71,62,2.75,moderate rain,0.12637795275590552,0.0
440,Jumla,NP,2020-04-02 19:51:23,29.27,82.18,37.76,27,11,4.14,few clouds,0.0,0.0
441,Sampit,ID,2020-04-02 19:51:23,-2.53,112.95,75.06,96,48,1.66,scattered clouds,0.0,0.0
442,Toshkivka,UA,2020-04-02 19:51:23,48.78,38.58,40.15,63,0,6.2,clear sky,0.0,0.0
443,Makuyuni,TZ,2020-04-02 19:51:24,-4.73,38.1,73.02,76,89,2.04,light rain,0.004724409448818898,0.0
444,San Quintin,MX,2020-04-02 19:51:24,30.48,-115.95,63.79,65,0,16.62,clear sky,0.0,0.0
445,Coihueco,CL,2020-04-02 19:51:24,-36.62,-71.83,87.8,19,0,17.22,clear sky,0.0,0.0
446,Krasnoselkup,RU,2020-04-02 19:49:10,65.7,82.47,36.97,99,100,20.4,light rain,0.08267716535433071,0.0
447,Linqing,CN,2020-04-02 19:51:24,36.85,115.71,43.36,80,8,5.68,clear sky,0.0,0.0
448,Ikot Ekpene,NG,2020-04-02 19:51:25,5.18,7.71,80.85,79,100,7.31,light rain,0.005905511811023622,0.0
449,Atambua,ID,2020-04-02 19:51:25,-9.11,124.89,74.26,77,72,2.17,broken clouds,0.0,0.0
450,Chumikan,RU,2020-04-02 19:49:19,54.72,135.31,23.49,91,100,11.45,light snow,0.0,0.029527559055118113
451,El Prat De Llobregat,ES,2020-04-02 19:49:31,41.33,2.09,55.99,66,20,12.75,few clouds,0.0,0.0
452,Luwuk,ID,2020-04-02 19:51:25,-0.95,122.79,80.33,72,95,3.24,overcast clouds,0.0,0.0
453,Raga,SS,2020-04-02 19:51:25,8.46,25.68,85.93,22,70,3.02,broken clouds,0.0,0.0
454,Ekhabi,RU,2020-04-02 19:51:25,53.51,142.97,28.27,93,100,16.46,overcast clouds,0.0,0.0
455,Carutapera,BR,2020-04-02 19:49:17,-1.2,-46.02,82.31,81,98,9.44,overcast clouds,0.0,0.0
456,Dargaville,NZ,2020-04-02 19:51:25,-35.93,173.88,65.25,65,0,1.25,clear sky,0.0,0.0
457,Labytnangi,RU,2020-04-02 19:51:26,66.66,66.42,11.25,92,13,10.29,few clouds,0.0,0.0
458,Pistsovo,RU,2020-04-02 19:51:26,57.18,40.53,37.4,86,90,8.95,overcast clouds,0.0,0.0
459,Cruz Alta,BR,2020-04-02 19:51:26,-28.64,-53.61,75.2,78,75,11.41,broken clouds,0.0,0.0
460,Calama,CL,2020-04-02 19:51:10,-22.47,-68.93,75.2,25,2,25.28,clear sky,0.0,0.0
461,Fare,PF,2020-04-02 19:51:26,-16.7,-151.02,83.48,76,0,13.2,light rain,0.009448818897637795,0.0
462,Buala,SB,2020-04-02 19:51:26,-8.14,159.59,80.65,77,100,16.06,light rain,0.09881889763779528,0.0
463,Nalut,LY,2020-04-02 19:51:26,30.33,10.85,68.83,17,0,1.3,clear sky,0.0,0.0
464,Dongli,CN,2020-04-02 19:51:27,23.57,116.82,64.4,100,90,2.24,mist,0.0,0.0
465,Adrar,MR,2020-04-02 19:51:27,20.5,-10.07,84.07,13,93,6.55,overcast clouds,0.0,0.0
466,Bar Harbor,US,2020-04-02 19:51:27,44.39,-68.2,46.0,93,90,19.46,overcast clouds,0.0,0.0
467,Ugoofaaru,MV,2020-04-02 19:51:27,5.67,73.0,83.88,62,0,6.89,clear sky,0.0,0.0
468,Khlevnoye,RU,2020-04-02 19:51:27,52.2,39.09,39.2,58,83,4.47,broken clouds,0.0,0.0
469,Gasa,PS,2020-04-02 19:49:41,31.5,34.47,61.0,72,3,2.24,clear sky,0.0,0.0
470,Velagici,BA,2020-04-02 19:51:28,44.56,16.73,41.0,65,0,3.36,clear sky,0.0,0.0
471,Sur,OM,2020-04-02 19:49:04,22.57,59.53,79.07,68,0,8.3,clear sky,0.0,0.0
472,Lubango,AO,2020-04-02 19:51:28,-14.92,13.49,62.15,50,48,0.54,scattered clouds,0.0,0.0
473,Breyten,ZA,2020-04-02 19:51:28,-26.3,29.99,43.99,58,5,6.73,clear sky,0.0,0.0
474,Marzuq,YE,2020-04-02 19:51:28,14.4,46.47,74.19,41,0,3.69,clear sky,0.0,0.0
475,Isernia,IT,2020-04-02 19:51:28,41.6,14.24,46.99,81,20,1.83,few clouds,0.0,0.0
476,Tessalit,ML,2020-04-02 19:51:29,20.2,1.01,80.98,10,12,7.58,few clouds,0.0,0.0
477,New London,US,2020-04-02 19:47:42,41.36,-72.1,57.2,46,90,19.46,overcast clouds,0.0,0.0
478,Portland,US,2020-04-02 19:46:57,45.52,-122.68,53.01,61,75,3.36,light rain,0.0,0.0
479,Rabo De Peixe,PT,2020-04-02 19:51:29,37.8,-25.58,62.6,93,75,18.34,broken clouds,0.0,0.0
480,Capreol,CA,2020-04-02 19:49:17,46.71,-80.92,44.6,42,20,13.87,few clouds,0.0,0.0
481,Yumen,CN,2020-04-02 19:48:18,40.28,97.2,35.17,31,0,10.09,clear sky,0.0,0.0
482,Omboue,GA,2020-04-02 19:51:29,-1.57,9.26,79.68,89,62,8.16,light rain,0.01732283464566929,0.0
483,Ketchikan,US,2020-04-02 19:51:29,55.34,-131.65,37.4,47,1,13.87,clear sky,0.0,0.0
484,Jacareacanga,BR,2020-04-02 19:46:32,-6.22,-57.75,87.8,70,20,3.36,few clouds,0.0,0.0
485,Sivaki,RU,2020-04-02 19:51:30,52.63,126.75,12.52,88,92,11.65,overcast clouds,0.0,0.0
486,Bathsheba,BB,2020-04-02 19:51:30,13.22,-59.52,78.13,74,99,11.9,overcast clouds,0.0,0.0
487,Shahreza,IR,2020-04-02 19:51:30,32.03,51.88,54.0,29,48,4.61,scattered clouds,0.0,0.0
488,Marsh Harbour,BS,2020-04-02 19:51:30,26.54,-77.06,70.41,64,20,9.26,few clouds,0.0,0.0
489,Grand Gaube,MU,2020-04-02 19:48:45,-20.01,57.66,77.0,94,40,3.36,scattered clouds,0.0,0.0
490,Ewa Beach,US,2020-04-02 19:50:20,21.32,-158.01,80.6,69,1,8.05,clear sky,0.0,0.0
491,Garissa,KE,2020-04-02 19:51:30,-0.45,39.64,82.89,66,33,13.24,light rain,0.011023622047244096,0.0
492,Port Blair,IN,2020-04-02 19:51:30,11.67,92.75,81.77,69,38,3.8,scattered clouds,0.0,0.0
493,Saint-Pierre,RE,2020-04-02 19:51:31,-21.34,55.48,73.4,94,75,8.05,broken clouds,0.0,0.0
494,Camacha,PT,2020-04-02 19:48:43,33.08,-16.33,62.6,67,20,10.29,few clouds,0.0,0.0
495,Isangel,VU,2020-04-02 19:51:31,-19.55,169.27,78.08,86,100,12.88,moderate rain,0.2,0.0
496,Manado,ID,2020-04-02 19:51:31,1.49,124.85,73.4,100,20,1.25,few clouds,0.0,0.0
497,Aldan,RU,2020-04-02 19:51:31,58.6,125.39,-5.03,83,80,2.73,broken clouds,0.0,0.0
498,Dunedin,NZ,2020-04-02 19:47:02,-45.87,170.5,54.0,84,0,2.8,clear sky,0.0,0.0
499,Aswan,EG,2020-04-02 19:51:31,24.09,32.91,77.0,20,0,6.93,clear sky,0.0,0.0
500,Colesberg,ZA,2020-04-02 19:51:31,-30.72,25.1,64.9,35,55,5.59,broken clouds,0.0,0.0
501,Nantucket,US,2020-04-02 19:51:31,41.28,-70.1,46.99,87,90,24.16,light rain,0.0,0.0
502,Ambanja,MG,2020-04-02 19:51:32,-13.68,48.45,78.37,81,46,2.15,light rain,0.07401574803149606,0.0
503,Sechura,PE,2020-04-02 19:51:32,-5.56,-80.82,77.86,68,99,7.96,overcast clouds,0.0,0.0
504,Nyurba,RU,2020-04-02 19:51:32,63.28,118.33,2.62,92,36,3.44,scattered clouds,0.0,0.0
505,Termiz,UZ,2020-04-02 19:51:32,37.22,67.28,60.8,71,80,6.93,broken clouds,0.0,0.0
506,Mumbwa,ZM,2020-04-02 19:51:32,-14.98,27.06,61.21,63,0,5.79,clear sky,0.0,0.0
507,Fort Abbas,PK,2020-04-02 19:51:32,29.19,72.85,72.46,27,0,8.79,clear sky,0.0,0.0
508,Novorzhev,RU,2020-04-02 19:51:33,57.03,29.33,39.22,73,96,14.81,overcast clouds,0.0,0.0
509,Malartic,CA,2020-04-02 19:51:33,48.13,-78.13,39.99,69,75,10.29,broken clouds,0.0,0.0
510,Sao Felix Do Xingu,BR,2020-04-02 19:51:33,-6.64,-51.99,81.37,79,92,1.45,light rain,0.011811023622047244,0.0
511,Gashua,NG,2020-04-02 19:51:33,12.87,11.05,90.25,16,100,7.49,overcast clouds,0.0,0.0
512,Chegutu,ZW,2020-04-02 19:51:33,-18.13,30.14,61.25,55,10,10.69,clear sky,0.0,0.0
513,Vestmannaeyjar,IS,2020-04-02 19:51:33,63.44,-20.27,31.96,87,53,11.12,broken clouds,0.0,0.0
514,Srednekolymsk,RU,2020-04-02 19:49:25,67.45,153.68,0.75,92,86,3.04,overcast clouds,0.0,0.0
515,Batagay,RU,2020-04-02 19:48:59,67.63,134.63,-8.63,86,3,0.63,clear sky,0.0,0.0
516,Bonnyville,CA,2020-04-02 19:51:34,54.27,-110.73,3.2,65,75,14.99,light shower snow,0.0,0.0
517,Itaituba,BR,2020-04-02 19:51:34,-4.28,-55.98,89.6,70,20,5.82,few clouds,0.0,0.0
518,Castanos,MX,2020-04-02 19:51:34,26.78,-101.42,93.99,21,12,1.99,few clouds,0.0,0.0
519,Braganca,BR,2020-04-02 19:51:34,-1.05,-46.77,79.68,87,100,4.34,light rain,0.009055118110236222,0.0
520,Dunyapur,PK,2020-04-02 19:51:35,29.8,71.72,75.2,44,20,6.89,haze,0.0,0.0
521,Gornopravdinsk,RU,2020-04-02 19:51:35,60.05,69.9,24.39,95,15,9.69,few clouds,0.0,0.0
522,Lavrentiya,RU,2020-04-02 19:51:35,65.58,-171.0,19.49,96,100,3.85,overcast clouds,0.0,0.0
523,Havre-Saint-Pierre,CA,2020-04-02 19:51:35,50.23,-63.6,41.0,80,90,5.82,overcast clouds,0.0,0.0
524,Qaracala,AZ,2020-04-02 19:51:35,39.81,48.95,52.57,60,98,6.29,overcast clouds,0.0,0.0
525,Ayia Marina,GR,2020-04-02 19:51:35,37.75,23.53,53.01,61,20,3.36,few clouds,0.0,0.0
526,Egvekinot,RU,2020-04-02 19:51:36,66.32,-179.17,8.76,86,40,4.72,scattered clouds,0.0,0.0
527,Pavilosta,LV,2020-04-02 19:51:36,56.89,21.19,44.6,75,100,28.86,light rain,0.016141732283464567,0.0
528,Miles City,US,2020-04-02 19:51:36,46.41,-105.84,28.0,56,75,13.87,broken clouds,0.0,0.0
529,Dzhubga,RU,2020-04-02 19:51:36,44.32,38.7,42.19,71,3,5.28,clear sky,0.0,0.0
530,Puerto Del Rosario,ES,2020-04-02 19:51:36,28.5,-13.86,66.2,68,20,12.75,few clouds,0.0,0.0
531,Macklin,CA,2020-04-02 19:51:36,52.33,-109.93,8.78,83,99,10.38,overcast clouds,0.0,0.0
532,Taoudenni,ML,2020-04-02 19:49:14,22.68,-3.98,87.37,12,100,7.23,overcast clouds,0.0,0.0
533,Awbari,LY,2020-04-02 19:51:37,26.59,12.78,76.71,14,34,8.61,scattered clouds,0.0,0.0
534,Ondo,NG,2020-04-02 19:51:37,7.1,4.83,77.52,81,100,3.58,overcast clouds,0.0,0.0
535,Qarqin,AF,2020-04-02 19:51:37,37.42,66.04,64.74,35,12,15.03,few clouds,0.0,0.0
536,Chara,RU,2020-04-02 19:51:37,56.91,118.26,5.32,77,59,4.61,broken clouds,0.0,0.0
537,Kharabali,RU,2020-04-02 19:51:37,47.42,47.26,39.34,63,0,4.7,clear sky,0.0,0.0
538,Okoneshnikovo,RU,2020-04-02 19:51:37,54.84,75.08,28.65,96,73,9.04,broken clouds,0.0,0.0
539,Coro,VE,2020-04-02 19:51:38,11.4,-69.67,81.66,68,51,17.72,broken clouds,0.0,0.0
540,Przasnysz,PL,2020-04-02 19:51:38,53.02,20.88,39.0,59,3,6.93,clear sky,0.0,0.0
541,Kitob,UZ,2020-04-02 19:51:38,39.08,66.83,54.46,32,26,6.49,scattered clouds,0.0,0.0
542,Tenenkou,ML,2020-04-02 19:51:38,14.46,-4.92,91.15,9,0,12.01,clear sky,0.0,0.0
543,Huarmey,PE,2020-04-02 19:51:38,-10.07,-78.15,81.39,57,25,9.06,scattered clouds,0.0,0.0
544,Mbanza-Ngungu,CD,2020-04-02 19:51:39,-5.25,14.87,72.77,82,100,3.8,light rain,0.029921259842519688,0.0
545,Svay Rieng,KH,2020-04-02 19:51:39,11.09,105.8,76.1,88,1,6.08,clear sky,0.0,0.0
546,Mount Isa,AU,2020-04-02 19:46:56,-20.73,139.5,73.4,56,65,4.7,broken clouds,0.0,0.0
547,Maumere,ID,2020-04-02 19:51:39,-8.62,122.21,80.74,73,72,3.65,broken clouds,0.0,0.0
548,Sistranda,NO,2020-04-02 19:51:39,63.73,8.83,36.0,69,75,39.15,broken clouds,0.0,0.0
549,Asfi,MA,2020-04-02 19:50:30,32.3,-9.24,58.15,67,1,14.99,clear sky,0.0,0.0
550,College,US,2020-04-02 19:51:39,64.86,-147.8,30.0,49,90,1.99,overcast clouds,0.0,0.0
551,Finnsnes,NO,2020-04-02 19:51:39,69.23,17.98,19.4,72,99,5.82,overcast clouds,0.0,0.0
552,Broken Hill,AU,2020-04-02 19:48:34,-31.95,141.43,66.2,82,90,14.99,overcast clouds,0.0,0.0
553,Iroquois Falls,CA,2020-04-02 19:51:40,48.77,-80.68,39.2,55,75,12.75,broken clouds,0.0,0.0
554,Broome,US,2020-04-02 19:51:40,42.25,-75.83,48.2,52,75,20.8,broken clouds,0.0,0.0
555,Methoni,GR,2020-04-02 19:51:40,36.82,21.7,54.0,71,100,4.7,overcast clouds,0.0,0.0
556,Dalvik,IS,2020-04-02 19:51:40,65.97,-18.53,24.8,73,40,6.93,scattered clouds,0.0,0.0
557,Canutama,BR,2020-04-02 19:48:04,-6.53,-64.38,88.07,64,60,1.21,light rain,0.030314960629921263,0.0
558,Bilibino,RU,2020-04-02 19:51:41,68.05,166.44,4.64,88,99,2.44,overcast clouds,0.0,0.0
559,Odienne,CI,2020-04-02 19:51:41,9.51,-7.57,87.13,30,60,4.81,broken clouds,0.0,0.0
560,Zhigalovo,RU,2020-04-02 19:51:41,54.81,105.16,28.26,90,1,2.44,clear sky,0.0,0.0
561,Mwene-Ditu,CD,2020-04-02 19:51:41,-7.0,23.45,68.76,75,100,6.2,light rain,0.10078740157480316,0.0
562,Esmeraldas,BR,2020-04-02 19:51:26,-19.76,-44.31,80.6,65,75,6.93,broken clouds,0.0,0.0
563,Ca Mau,VN,2020-04-02 19:51:41,9.18,105.15,78.62,85,20,7.34,few clouds,0.0,0.0
564,Bac Lieu,VN,2020-04-02 19:51:41,9.29,105.72,80.49,81,12,12.33,few clouds,0.0,0.0
565,Boca Do Acre,BR,2020-04-02 19:51:42,-8.75,-67.4,89.89,58,78,1.3,broken clouds,0.0,0.0
566,Margate,GB,2020-04-02 19:45:47,51.38,1.39,53.01,66,75,5.82,broken clouds,0.0,0.0
567,Vilyuysk,RU,2020-04-02 19:51:42,63.76,121.62,0.88,92,39,5.91,scattered clouds,0.0,0.0
568,Boa Vista,BR,2020-04-02 19:51:42,2.82,-60.67,91.4,46,75,6.93,shower rain,0.0,0.0
569,Challapata,BO,2020-04-02 19:51:42,-18.9,-66.77,55.35,16,40,7.99,scattered clouds,0.0,0.0
570,Crotone,IT,2020-04-02 19:51:42,39.09,17.12,49.03,64,66,1.16,broken clouds,0.0,0.0
571,Akonolinga,CM,2020-04-02 19:51:42,3.77,12.25,72.01,79,89,2.95,moderate rain,0.14133858267716537,0.0
572,Hamilton,US,2020-04-02 19:45:06,39.18,-84.53,61.0,38,1,4.85,clear sky,0.0,0.0
